$GPGGA,081138.00,2458.20582,N,12116.04011,E,1,07,1.19,123.7,M,16.6,M,,*50
$GPGSA,A,3,17,19,28,06,14,09,02,,,,,,2.66,1.19,2.39*0D
$GPGSV,3,1,09,02,25,285,25,06,48,318,38,09,28,114,33,12,06,322,*75
$GPGSV,3,2,09,13,,,09,14,38,180,36,17,63,058,44,19,59,004,40*42
$GPGSV,3,3,09,28,54,197,34*43
$GPGLL,2458.20582,N,12116.04011,E,081138.00,A,A*6D
$GPRMC,081139.00,A,2458.20564,N,12116.04051,E,1.426,117.71,160521,,,A*66
$GPVTG,117.71,T,,M,1.426,N,2.641,K,A*3C
$GPGGA,081139.00,2458.20564,N,12116.04051,E,1,07,1.19,124.7,M,16.6,M,,*5A
$GPGSA,A,3,17,19,28,06,14,09,02,,,,,,2.67,1.19,2.39*0C
$GPGSV,2,1,08,02,25,285,38,06,48,318,41,09,28,114,29,12,06,322,*7C
$GPGSV,2,2,08,14,38,180,38,17,63,058,38,19,59,004,35,28,54,197,34*7D
$GPGLL,2458.20564,N,12116.04051,E,081139.00,A,A*60
$GPRMC,081140.00,A,2458.20553,N,12116.04092,E,1.424,107.14,160521,,,A*63
$GPVTG,107.14,T,,M,1.424,N,2.638,K,A*32
$GPGGA,081140.00,2458.20553,N,12116.04092,E,1,07,1.19,125.3,M,16.6,M,,*5A
$GPGSA,A,3,17,19,28,06,14,09,02,,,,,,2.67,1.19,2.39*0C
$GPGSV,2,1,08,02,25,285,35,06,48,318,43,09,28,114,37,12,06,322,*7C
$GPGSV,2,2,08,14,38,180,43,17,63,058,39,19,59,004,42,28,54,197,37*73
$GPGLL,2458.20553,N,12116.04092,E,081140.00,A,A*65
$GPRMC,081141.00,A,2458.20567,N,12116.04144,E,1.509,94.58,160521,,,A*52
$GPVTG,94.58,T,,M,1.509,N,2.795,K,A*09
$GPGGA,081141.00,2458.20567,N,12116.04144,E,1,07,1.19,125.8,M,16.6,M,,*5D
$GPGSA,A,3,17,19,28,06,14,09,02,,,,,,2.67,1.19,2.39*0C
$GPGSV,2,1,08,02,25,285,34,06,48,318,43,09,28,114,36,12,06,322,*7C
$GPGSV,2,2,08,14,38,180,44,17,63,058,37,19,59,004,40,28,54,197,43*7B
$GPGLL,2458.20567,N,12116.04144,E,081141.00,A,A*69
$GPRMC,081142.00,A,2458.20573,N,12116.04201,E,1.843,90.02,160521,,,A*5E
$GPVTG,90.02,T,,M,1.843,N,3.412,K,A*0C
$GPGGA,081142.00,2458.20573,N,12116.04201,E,1,06,2.18,126.0,M,16.6,M,,*51
$GPGSA,A,3,17,19,28,06,14,02,,,,,,,5.39,2.18,4.92*0C
$GPGSV,3,1,09,02,25,285,34,06,48,318,43,09,28,114,,12,06,322,*79
$GPGSV,3,2,09,14,38,180,42,17,63,058,37,19,59,004,43,28,54,197,45*78
$GPGSV,3,3,09,50,51,133,40*44
$GPGLL,2458.20573,N,12116.04201,E,081142.00,A,A*6D
$GPRMC,081143.00,A,2458.20571,N,12116.04257,E,1.893,89.98,160521,,,A*58
$GPVTG,89.98,T,,M,1.893,N,3.505,K,A*0D
$GPGGA,081143.00,2458.20571,N,12116.04257,E,1,07,1.19,126.1,M,16.6,M,,*53
$GPGSA,A,3,17,19,28,06,14,09,02,,,,,,2.67,1.19,2.39*0C
$GPGSV,3,1,10,02,25,285,34,06,48,318,44,09,28,114,31,12,06,322,*74
$GPGSV,3,2,10,14,38,180,38,17,63,058,40,19,59,004,41,21,,,33*49
$GPGSV,3,3,10,28,54,197,44,50,51,133,37*78
$GPGLL,2458.20571,N,12116.04257,E,081143.00,A,A*6D
$GPRMC,081144.00,A,2458.20562,N,12116.04277,E,0.330,,160521,,,A*72
$GPVTG,,T,,M,0.330,N,0.611,K,A*25
$GPGGA,081144.00,2458.20562,N,12116.04277,E,1,07,1.19,126.0,M,16.6,M,,*55
$GPGSA,A,3,17,19,28,06,14,09,02,,,,,,2.67,1.19,2.39*0C
$GPGSV,3,1,09,02,25,285,34,06,48,318,39,09,28,114,34,12,06,322,*73
$GPGSV,3,2,09,14,38,180,33,17,63,058,38,19,59,004,43,28,54,197,42*76
$GPGSV,3,3,09,50,51,133,35*46
$GPGLL,2458.20562,N,12116.04277,E,081144.00,A,A*6A
$GPRMC,081145.00,A,2458.20546,N,12116.04225,E,2.745,118.19,160521,,,A*68
$GPVTG,118.19,T,,M,2.745,N,5.084,K,A*30
$GPGGA,081145.00,2458.20546,N,12116.04225,E,1,07,1.19,125.4,M,16.6,M,,*52
$GPGSA,A,3,17,19,28,06,14,09,02,,,,,,2.67,1.19,2.39*0C
$GPGSV,3,1,11,02,25,285,34,03,,,32,06,48,318,43,09,28,114,39*4E
$GPGSV,3,2,11,12,06,322,,14,38,180,28,17,63,058,40,19,59,004,30*7A
$GPGSV,3,3,11,21,,,20,28,54,197,36,50,51,133,34*7E
$GPGLL,2458.20546,N,12116.04225,E,081145.00,A,A*6A
$GPRMC,081146.00,A,2458.20519,N,12116.04149,E,2.554,222.73,160521,,,A*6C
$GPVTG,222.73,T,,M,2.554,N,4.730,K,A*3D
$GPGGA,081146.00,2458.20519,N,12116.04149,E,1,07,1.19,125.2,M,16.6,M,,*54
$GPGSA,A,3,17,19,28,06,14,09,02,,,,,,2.67,1.19,2.39*0C
$GPGSV,3,1,11,02,25,285,30,03,,,28,06,48,318,41,09,28,114,41*4C
$GPGSV,3,2,11,12,06,322,,14,38,180,37,17,63,058,36,19,59,004,40*72
$GPGSV,3,3,11,21,,,17,28,54,197,37,50,51,133,37*78
$GPGLL,2458.20519,N,12116.04149,E,081146.00,A,A*6A
$GPRMC,081147.00,A,2458.20501,N,12116.04070,E,2.603,229.54,160521,,,A*60
$GPVTG,229.54,T,,M,2.603,N,4.821,K,A*3D
$GPGGA,081147.00,2458.20501,N,12116.04070,E,1,07,1.19,125.1,M,16.6,M,,*54
$GPGSA,A,3,17,19,28,06,14,09,02,,,,,,2.67,1.19,2.39*0C
$GPGSV,3,1,11,02,25,285,22,03,,,28,06,48,318,41,09,28,114,41*4F
$GPGSV,3,2,11,12,06,322,,14,38,180,35,17,63,058,26,19,59,004,45*74
$GPGSV,3,3,11,21,,,15,28,54,197,39,50,51,133,39*7A
$GPGLL,2458.20501,N,12116.04070,E,081147.00,A,A*69
$GPRMC,081148.00,A,2458.20469,N,12116.04025,E,1.791,238.62,160521,,,A*6C
$GPVTG,238.62,T,,M,1.791,N,3.317,K,A*38
$GPGGA,081148.00,2458.20469,N,12116.04025,E,1,07,1.19,123.9,M,16.6,M,,*5A
$GPGSA,A,3,17,19,28,06,14,09,02,,,,,,2.67,1.19,2.39*0C
$GPGSV,3,1,10,02,25,285,23,03,,,26,06,48,318,40,09,28,114,39*4F
$GPGSV,3,2,10,12,06,322,,14,38,180,37,17,63,058,25,19,59,004,45*74
$GPGSV,3,3,10,28,54,197,41,50,51,133,39*73
$GPGLL,2458.20469,N,12116.04025,E,081148.00,A,A*69
$GPRMC,081149.00,A,2458.20426,N,12116.03959,E,2.367,234.15,160521,,,A*61
$GPVTG,234.15,T,,M,2.367,N,4.385,K,A*36
$GPGGA,081149.00,2458.20426,N,12116.03959,E,1,07,1.19,124.7,M,16.6,M,,*5C
$GPGSA,A,3,17,19,28,06,14,09,02,,,,,,2.67,1.19,2.39*0C
$GPGSV,3,1,11,02,25,285,30,03,,,27,06,48,318,41,09,28,114,43*41
$GPGSV,3,2,11,12,06,322,,14,38,180,37,17,63,058,31,19,59,004,43*76
$GPGSV,3,3,11,21,,,26,28,54,197,39,50,51,133,39*7A
$GPGLL,2458.20426,N,12116.03959,E,081149.00,A,A*66
$GPRMC,081150.00,A,2458.20379,N,12116.03919,E,2.132,223.66,160521,,,A*60
$GPVTG,223.66,T,,M,2.132,N,3.948,K,A*3A
$GPGGA,081150.00,2458.20379,N,12116.03919,E,1,07,1.19,124.6,M,16.6,M,,*5C
$GPGSA,A,3,17,19,28,06,14,09,02,,,,,,2.67,1.19,2.39*0C
$GPGSV,3,1,11,02,25,285,35,03,,,28,06,48,318,41,09,28,114,43*4B
$GPGSV,3,2,11,12,06,322,,14,38,180,30,17,63,058,37,19,59,004,36*75
$GPGSV,3,3,11,21,,,23,28,54,197,37,50,51,133,36*7E
$GPGLL,2458.20379,N,12116.03919,E,081150.00,A,A*67
$GPRMC,081151.00,A,2458.20322,N,12116.03898,E,2.252,210.54,160521,,,A*63
$GPVTG,210.54,T,,M,2.252,N,4.170,K,A*3A
$GPGGA,081151.00,2458.20322,N,12116.03898,E,1,07,1.19,124.1,M,16.6,M,,*5C
$GPGSA,A,3,17,19,28,06,14,09,02,,,,,,2.67,1.19,2.39*0C
$GPGSV,3,1,11,02,25,285,35,03,,,33,06,48,318,42,09,28,114,44*45
$GPGSV,3,2,11,12,06,322,,14,38,180,34,17,63,058,33,19,59,004,39*7A
$GPGSV,3,3,11,21,,,19,28,54,197,37,50,51,133,39*78
$GPGLL,2458.20322,N,12116.03898,E,081151.00,A,A*60
$GPRMC,081152.00,A,2458.20256,N,12116.03885,E,2.379,198.70,160521,,,A*63
$GPVTG,198.70,T,,M,2.379,N,4.405,K,A*30
$GPGGA,081152.00,2458.20256,N,12116.03885,E,1,07,1.40,124.5,M,16.6,M,,*59
$GPGSA,A,3,17,19,28,06,14,09,02,,,,,,2.77,1.40,2.40*0F
$GPGSV,3,1,10,02,25,285,35,03,,,32,06,48,318,43,09,28,114,43*43
$GPGSV,3,2,10,12,06,322,,14,38,180,35,17,63,058,36,19,59,004,34*72
$GPGSV,3,3,10,28,54,197,38,50,51,133,36*72
$GPGLL,2458.20256,N,12116.03885,E,081152.00,A,A*6D
$GPRMC,081153.00,A,2458.20186,N,12116.03885,E,2.514,191.07,160521,,,A*68
$GPVTG,191.07,T,,M,2.514,N,4.655,K,A*33
$GPGGA,081153.00,2458.20186,N,12116.03885,E,1,07,1.40,124.7,M,16.6,M,,*54
$GPGSA,A,3,17,19,28,06,14,09,02,,,,,,2.77,1.40,2.40*0F
$GPGSV,3,1,10,02,25,285,37,03,,,28,06,48,318,43,09,28,114,39*47
$GPGSV,3,2,10,12,06,322,,14,38,180,35,17,63,058,39,19,59,004,25*7D
$GPGSV,3,3,10,28,54,197,39,50,51,133,35*70
$GPGLL,2458.20186,N,12116.03885,E,081153.00,A,A*62
$GPRMC,081154.00,A,2458.20118,N,12116.03899,E,2.548,179.27,160521,,,A*68
$GPVTG,179.27,T,,M,2.548,N,4.719,K,A*37
$GPGGA,081154.00,2458.20118,N,12116.03899,E,1,07,1.40,124.6,M,16.6,M,,*58
$GPGSA,A,3,17,19,28,06,14,09,02,,,,,,2.77,1.40,2.40*0F
$GPGSV,3,1,10,02,25,285,35,03,,,33,06,48,318,43,09,28,114,39*4F
$GPGSV,3,2,10,12,06,322,,14,38,180,39,17,63,058,41,19,59,004,23*78
$GPGSV,3,3,10,28,54,197,40,50,51,133,35*7E
$GPGLL,2458.20118,N,12116.03899,E,081154.00,A,A*6F
$GPRMC,081155.00,A,2458.20065,N,12116.03918,E,2.219,172.71,160521,,,A*61
$GPVTG,172.71,T,,M,2.219,N,4.109,K,A*3B
$GPGGA,081155.00,2458.20065,N,12116.03918,E,1,07,1.40,123.9,M,16.6,M,,*52
$GPGSA,A,3,17,19,28,06,14,09,02,,,,,,2.77,1.40,2.40*0F
$GPGSV,3,1,10,02,25,285,35,03,,,36,06,48,318,43,09,28,114,39*4A
$GPGSV,3,2,10,12,06,322,,14,38,180,34,17,63,058,39,19,59,004,24*7D
$GPGSV,3,3,10,28,54,197,40,50,51,133,33*78
$GPGLL,2458.20065,N,12116.03918,E,081155.00,A,A*6D
$GPRMC,081156.00,A,2458.20018,N,12116.03944,E,2.068,167.49,160521,,,A*6A
$GPVTG,167.49,T,,M,2.068,N,3.829,K,A*3C
$GPGGA,081156.00,2458.20018,N,12116.03944,E,1,07,1.40,123.6,M,16.6,M,,*5D
$GPGSA,A,3,17,19,28,06,14,09,02,,,,,,2.78,1.40,2.40*00
$GPGSV,3,1,10,02,25,285,37,03,,,36,06,48,318,42,09,28,114,39*49
$GPGSV,3,2,10,12,06,322,23,14,38,180,39,17,63,058,40,19,59,004,33*79
$GPGSV,3,3,10,28,54,197,41,50,51,133,36*7C
$GPGLL,2458.20018,N,12116.03944,E,081156.00,A,A*6D
$GPRMC,081157.00,A,2458.19962,N,12116.03974,E,2.274,,160521,,,A*7A
$GPVTG,,T,,M,2.274,N,4.212,K,A*25
$GPGGA,081157.00,2458.19962,N,12116.03974,E,1,07,1.40,123.6,M,16.6,M,,*51
$GPGSA,A,3,17,19,28,06,14,09,02,,,,,,2.78,1.40,2.40*00
$GPGSV,3,1,10,02,25,285,37,03,,,36,06,48,318,29,09,28,114,35*48
$GPGSV,3,2,10,12,06,322,19,14,38,180,41,17,63,058,41,19,59,004,36*7B
$GPGSV,3,3,10,28,54,197,39,50,51,133,36*73
$GPGLL,2458.19962,N,12116.03974,E,081157.00,A,A*61
$GPRMC,081158.00,A,2458.19914,N,12116.04004,E,1.933,158.80,160521,,,A*6C
$GPVTG,158.80,T,,M,1.933,N,3.581,K,A*3E
$GPGGA,081158.00,2458.19914,N,12116.04004,E,1,07,1.40,123.8,M,16.6,M,,*58
$GPGSA,A,3,17,19,28,06,14,09,02,,,,,,2.78,1.40,2.40*00
$GPGSV,3,1,10,02,25,285,37,03,,,38,06,48,318,33,09,28,114,35*4D
$GPGSV,3,2,10,12,06,322,,14,38,180,38,17,63,058,41,19,59,004,33*78
$GPGSV,3,3,10,28,54,197,40,50,51,133,34*7F
$GPGLL,2458.19914,N,12116.04004,E,081158.00,A,A*66
$GPRMC,081159.00,A,2458.19858,N,12116.04038,E,2.249,156.09,160521,,,A*61
$GPVTG,156.09,T,,M,2.249,N,4.165,K,A*3D
$GPGGA,081159.00,2458.19858,N,12116.04038,E,1,07,1.40,124.1,M,16.6,M,,*51
$GPGSA,A,3,17,19,28,06,14,09,02,,,,,,2.78,1.40,2.40*00
$GPGSV,3,1,10,02,25,285,39,03,,,36,06,48,318,32,09,28,114,30*49
$GPGSV,3,2,10,12,06,322,,14,38,180,38,17,63,058,42,19,59,004,36*7E
$GPGSV,3,3,10,28,54,197,40,50,51,133,37*7C
$GPGLL,2458.19858,N,12116.04038,E,081159.00,A,A*61
$GPRMC,081200.00,A,2458.19806,N,12116.04076,E,2.320,154.24,160521,,,A*6C
$GPVTG,154.24,T,,M,2.320,N,4.297,K,A*30
$GPGGA,081200.00,2458.19806,N,12116.04076,E,1,07,1.40,124.3,M,16.6,M,,*5D
$GPGSA,A,3,17,19,28,06,14,09,02,,,,,,2.78,1.40,2.40*00
$GPGSV,3,1,10,02,25,285,39,03,,,35,06,48,318,26,09,28,114,31*4E
$GPGSV,3,2,10,12,06,322,,14,38,180,35,17,63,058,40,19,59,004,36*71
$GPGSV,3,3,10,28,54,197,40,50,51,133,34*7F
$GPGLL,2458.19806,N,12116.04076,E,081200.00,A,A*6F
$GPRMC,081201.00,A,2458.19749,N,12116.04113,E,2.311,150.85,160521,,,A*66
$GPVTG,150.85,T,,M,2.311,N,4.281,K,A*3A
$GPGGA,081201.00,2458.19749,N,12116.04113,E,1,06,1.40,124.1,M,16.6,M,,*59
$GPGSA,A,3,17,19,28,06,09,02,,,,,,,2.78,1.40,2.40*05
$GPGSV,3,1,11,02,25,285,40,03,,,36,06,48,318,24,09,28,114,31*40
$GPGSV,3,2,11,12,06,322,,14,38,180,,17,63,058,41,19,59,004,36*77
$GPGSV,3,3,11,21,,,22,28,54,197,40,50,51,133,36*7F
$GPGLL,2458.19749,N,12116.04113,E,081201.00,A,A*68
$GPRMC,081202.00,A,2458.19696,N,12116.04150,E,2.213,151.30,160521,,,A*6D
$GPVTG,151.30,T,,M,2.213,N,4.099,K,A*3D
$GPGGA,081202.00,2458.19696,N,12116.04150,E,1,06,1.40,124.1,M,16.6,M,,*5E
$GPGSA,A,3,17,19,28,06,09,02,,,,,,,2.78,1.40,2.40*05
$GPGSV,3,1,11,02,25,285,40,03,,,38,06,48,318,22,09,28,114,30*49
$GPGSV,3,2,11,12,06,322,,14,38,180,,17,63,058,39,19,59,004,36*78
$GPGSV,3,3,11,21,,,18,28,54,197,38,50,51,133,34*7B
$GPGLL,2458.19696,N,12116.04150,E,081202.00,A,A*6F
$GPRMC,081203.00,A,2458.19645,N,12116.04183,E,2.123,152.14,160521,,,A*69
$GPVTG,152.14,T,,M,2.123,N,3.931,K,A*34
$GPGGA,081203.00,2458.19645,N,12116.04183,E,1,06,1.40,124.0,M,16.6,M,,*5E
$GPGSA,A,3,17,19,28,06,09,02,,,,,,,2.78,1.40,2.40*05
$GPGSV,3,1,11,02,25,285,38,03,,,37,06,48,318,21,09,28,114,33*49
$GPGSV,3,2,11,12,06,322,,14,38,180,,17,63,058,41,19,59,004,38*79
$GPGSV,3,3,11,21,,,15,28,54,197,40,50,51,133,37*7A
$GPGLL,2458.19645,N,12116.04183,E,081203.00,A,A*6E
$GPRMC,081204.00,A,2458.19593,N,12116.04222,E,2.288,149.74,160521,,,A*60
$GPVTG,149.74,T,,M,2.288,N,4.238,K,A*3F
$GPGGA,081204.00,2458.19593,N,12116.04222,E,1,07,1.40,124.0,M,16.6,M,,*58
$GPGSA,A,3,17,19,28,06,14,09,02,,,,,,2.78,1.40,2.40*00
$GPGSV,3,1,11,02,25,285,38,03,,,37,06,48,318,22,09,28,114,28*40
$GPGSV,3,2,11,12,06,322,,14,38,180,21,17,63,058,39,19,59,004,39*74
$GPGSV,3,3,11,21,,,24,28,54,197,39,50,51,133,34*75
$GPGLL,2458.19593,N,12116.04222,E,081204.00,A,A*69
$GPRMC,081205.00,A,2458.19542,N,12116.04267,E,2.266,146.66,160521,,,A*60
$GPVTG,146.66,T,,M,2.266,N,4.197,K,A*35
$GPGGA,081205.00,2458.19542,N,12116.04267,E,1,07,1.40,123.9,M,16.6,M,,*5A
$GPGSA,A,3,17,19,28,06,14,09,02,,,,,,2.78,1.40,2.40*00
$GPGSV,3,1,10,02,25,285,35,03,,,33,06,48,318,23,09,28,114,28*49
$GPGSV,3,2,10,12,06,322,,14,38,180,24,17,63,058,36,19,59,004,36*70
$GPGSV,3,3,10,28,54,197,37,50,51,133,34*7F
$GPGLL,2458.19542,N,12116.04267,E,081205.00,A,A*65
$GPRMC,081206.00,A,2458.19484,N,12116.04321,E,2.362,140.65,160521,,,A*6B
$GPVTG,140.65,T,,M,2.362,N,4.374,K,A*3A
$GPGGA,081206.00,2458.19484,N,12116.04321,E,1,07,1.19,123.6,M,16.6,M,,*52
$GPGSA,A,3,17,19,28,06,14,09,02,,,,,,2.67,1.19,2.40*02
$GPGSV,4,1,14,02,25,285,42,03,,,38,04,,,27,05,,,26*4D
$GPGSV,4,2,14,06,48,318,23,08,,,26,09,28,114,28,12,06,322,18*45
$GPGSV,4,3,14,14,38,180,30,17,63,058,42,19,59,004,40,21,,,24*46
$GPGSV,4,4,14,28,54,197,42,50,51,133,38*75
$GPGLL,2458.19484,N,12116.04321,E,081206.00,A,A*6E
$GPRMC,081207.00,A,2458.19446,N,12116.04366,E,2.048,139.98,160521,,,A*60
$GPVTG,139.98,T,,M,2.048,N,3.792,K,A*36
$GPGGA,081207.00,2458.19446,N,12116.04366,E,1,07,1.19,123.5,M,16.6,M,,*5D
$GPGSA,A,3,17,19,28,06,14,09,02,,,,,,2.67,1.19,2.40*02
$GPGSV,4,1,14,02,25,285,35,03,,,33,04,,,24,05,,,24*47
$GPGSV,4,2,14,06,48,318,30,08,,,23,09,28,114,27,12,06,322,16*43
$GPGSV,4,3,14,14,38,180,30,17,63,058,37,19,59,004,33,21,,,22*46
$GPGSV,4,4,14,28,54,197,39,50,51,133,35*74
$GPGLL,2458.19446,N,12116.04366,E,081207.00,A,A*62
$GPRMC,081208.00,A,2458.19402,N,12116.04410,E,2.223,139.55,160521,,,A*67
$GPVTG,139.55,T,,M,2.223,N,4.117,K,A*34
$GPGGA,081208.00,2458.19402,N,12116.04410,E,1,07,1.19,123.5,M,16.6,M,,*54
$GPGSA,A,3,17,19,28,06,14,09,02,,,,,,2.67,1.19,2.40*02
$GPGSV,4,1,13,02,25,285,32,03,,,35,05,,,23,06,48,318,24*72
$GPGSV,4,2,13,09,28,114,27,12,06,322,13,14,38,180,23,17,63,058,37*77
$GPGSV,4,3,13,18,,,14,19,59,004,32,21,,,19,28,54,197,38*75
$GPGSV,4,4,13,50,51,133,35*4D
$GPGLL,2458.19402,N,12116.04410,E,081208.00,A,A*6B
$GPRMC,081209.00,A,2458.19365,N,12116.04451,E,1.884,138.72,160521,,,A*65
$GPVTG,138.72,T,,M,1.884,N,3.489,K,A*31
$GPGGA,081209.00,2458.19365,N,12116.04451,E,1,07,1.19,123.3,M,16.6,M,,*50
$GPGSA,A,3,17,19,28,06,14,09,02,,,,,,2.67,1.19,2.40*02
$GPGSV,4,1,14,02,25,285,32,03,,,35,05,,,22,06,48,318,27*77
$GPGSV,4,2,14,09,28,114,26,12,06,322,,14,38,180,21,17,63,058,39*7F
$GPGSV,4,3,14,19,59,004,35,21,,,23,24,,,28,25,,,28*4E
$GPGSV,4,4,14,28,54,197,39,50,51,133,35*74
$GPGLL,2458.19365,N,12116.04451,E,081209.00,A,A*69
$GPRMC,081210.00,A,2458.19309,N,12116.04505,E,2.499,138.33,160521,,,A*61
$GPVTG,138.33,T,,M,2.499,N,4.628,K,A*39
$GPGGA,081210.00,2458.19309,N,12116.04505,E,1,07,1.19,123.1,M,16.6,M,,*50
$GPGSA,A,3,17,19,28,06,14,09,02,,,,,,2.68,1.19,2.40*0D
$GPGSV,3,1,11,02,25,285,38,03,,,37,06,48,318,32,09,28,114,26*4F
$GPGSV,3,2,11,12,06,322,,14,38,180,20,17,63,058,41,19,59,004,38*7B
$GPGSV,3,3,11,24,,,28,28,54,197,39,50,51,133,37*7F
$GPGLL,2458.19309,N,12116.04505,E,081210.00,A,A*6B
$GPRMC,081211.00,A,2458.19267,N,12116.04556,E,2.215,134.69,160521,,,A*6E
$GPVTG,134.69,T,,M,2.215,N,4.102,K,A*37
$GPGGA,081211.00,2458.19267,N,12116.04556,E,1,07,1.19,123.2,M,16.6,M,,*5D
$GPGSA,A,3,17,19,28,06,14,09,02,,,,,,2.68,1.19,2.40*0D
$GPGSV,3,1,12,02,25,285,32,03,,,31,06,48,318,25,09,28,114,26*46
$GPGSV,3,2,12,12,06,322,,13,,,26,14,38,180,19,17,63,058,35*4C
$GPGSV,3,3,12,19,59,004,35,24,,,29,28,54,197,32,50,51,133,28*4E
$GPGLL,2458.19267,N,12116.04556,E,081211.00,A,A*65
$GPRMC,081212.00,A,2458.19237,N,12116.04626,E,2.113,109.01,160521,,,A*69
$GPVTG,109.01,T,,M,2.113,N,3.913,K,A*3D
$GPGGA,081212.00,2458.19237,N,12116.04626,E,1,07,1.19,122.7,M,16.6,M,,*5B
$GPGSA,A,3,17,19,28,06,14,09,02,,,,,,2.68,1.19,2.40*0D
$GPGSV,3,1,12,02,25,285,33,03,,,35,06,48,318,40,09,28,114,23*45
$GPGSV,3,2,12,12,06,322,,13,,,24,14,38,180,21,17,63,058,41*46
$GPGSV,3,3,12,19,59,004,43,24,,,15,28,54,197,42,50,51,133,34*4A
$GPGLL,2458.19237,N,12116.04626,E,081212.00,A,A*67
$GPRMC,081213.00,A,2458.19208,N,12116.04688,E,1.975,,160521,,,A*7C
$GPVTG,,T,,M,1.975,N,3.658,K,A*21
$GPGGA,081213.00,2458.19208,N,12116.04688,E,1,06,1.40,122.8,M,16.6,M,,*50
$GPGSA,A,3,17,19,28,06,09,02,,,,,,,2.78,1.40,2.40*05
$GPGSV,3,1,10,02,25,285,33,03,,,34,06,48,318,41,09,28,114,22*46
$GPGSV,3,2,10,12,06,322,,14,38,180,28,17,63,058,41,19,59,004,42*7F
$GPGSV,3,3,10,28,54,197,29,50,51,133,37*73
$GPGLL,2458.19208,N,12116.04688,E,081213.00,A,A*6E
$GPRMC,081214.00,A,2458.19186,N,12116.04761,E,2.073,108.05,160521,,,A*66
$GPVTG,108.05,T,,M,2.073,N,3.840,K,A*38
$GPGGA,081214.00,2458.19186,N,12116.04761,E,1,07,1.19,122.3,M,16.6,M,,*52
$GPGSA,A,3,17,19,28,06,14,09,02,,,,,,2.68,1.19,2.40*0D
$GPGSV,3,1,10,02,25,285,28,03,,,35,06,48,318,40,09,28,114,21*4F
$GPGSV,3,2,10,12,06,322,,14,38,180,28,17,63,058,38,19,59,004,40*73
$GPGSV,3,3,10,28,54,197,36,50,51,133,33*79
$GPGLL,2458.19186,N,12116.04761,E,081214.00,A,A*6A
$GPRMC,081215.00,A,2458.19175,N,12116.04816,E,1.734,,160521,,,A*71
$GPVTG,,T,,M,1.734,N,3.212,K,A*20
$GPGGA,081215.00,2458.19175,N,12116.04816,E,1,07,1.19,122.2,M,16.6,M,,*51
$GPGSA,A,3,17,19,28,06,14,09,02,,,,,,2.68,1.19,2.40*0D
$GPGSV,3,1,11,02,25,285,27,03,,,28,04,,,34,06,48,318,32*7F
$GPGSV,3,2,11,09,28,114,21,12,06,322,,14,38,180,33,17,63,058,30*70
$GPGSV,3,3,11,19,59,004,31,28,54,197,31,50,51,133,26*49
$GPGLL,2458.19175,N,12116.04816,E,081215.00,A,A*68
$GPRMC,081216.00,A,2458.19190,N,12116.04874,E,2.069,101.19,160521,,,A*67
$GPVTG,101.19,T,,M,2.069,N,3.833,K,A*33
$GPGGA,081216.00,2458.19190,N,12116.04874,E,1,07,1.19,121.9,M,16.6,M,,*55
$GPGSA,A,3,17,19,28,06,14,09,02,,,,,,2.68,1.19,2.40*0D
$GPGSV,4,1,15,01,,,26,02,25,285,31,03,,,26,04,,,27*43
$GPGSV,4,2,15,06,48,318,37,09,28,114,21,12,06,322,,13,,,26*4B
$GPGSV,4,3,15,14,38,180,38,17,63,058,34,18,,,28,19,59,004,36*49
$GPGSV,4,4,15,27,,,28,28,54,197,41,50,51,133,31*71
$GPGLL,2458.19190,N,12116.04874,E,081216.00,A,A*64
$GPRMC,081217.00,A,2458.19176,N,12116.04946,E,2.073,102.17,160521,,,A*68
$GPVTG,102.17,T,,M,2.073,N,3.839,K,A*3F
$GPGGA,081217.00,2458.19176,N,12116.04946,E,1,07,1.68,121.5,M,16.6,M,,*56
$GPGSA,A,3,17,19,28,06,14,09,02,,,,,,4.17,1.68,3.82*0A
$GPGSV,4,1,13,02,25,285,27,03,,,25,06,48,318,41,09,28,114,19*4F
$GPGSV,4,2,13,11,,,14,12,06,322,,13,,,26,14,38,180,40*7B
$GPGSV,4,3,13,17,63,058,38,18,,,24,19,59,004,40,28,54,197,41*43
$GPGSV,4,4,13,50,51,133,31*49
$GPGLL,2458.19176,N,12116.04946,E,081217.00,A,A*6D
$GPRMC,081218.00,A,2458.19199,N,12116.05016,E,2.358,82.84,160521,,,A*52
$GPVTG,82.84,T,,M,2.358,N,4.366,K,A*00
$GPGGA,081218.00,2458.19199,N,12116.05016,E,1,07,1.68,120.4,M,16.6,M,,*55
$GPGSA,A,3,17,19,28,06,14,09,02,,,,,,4.17,1.68,3.82*0A
$GPGSV,4,1,15,02,25,285,28,03,,,25,04,,,24,06,48,318,40*7A
$GPGSV,4,2,15,09,28,114,19,11,,,09,12,06,322,,13,,,10*78
$GPGSV,4,3,15,14,38,180,33,17,63,058,38,18,,,19,19,59,004,39*43
$GPGSV,4,4,15,27,,,21,28,54,197,41,50,51,133,32*7B
$GPGLL,2458.19199,N,12116.05016,E,081218.00,A,A*6E
$GPRMC,081219.00,A,2458.19215,N,12116.05088,E,2.477,81.73,160521,,,A*52
$GPVTG,81.73,T,,M,2.477,N,4.587,K,A*08
$GPGGA,081219.00,2458.19215,N,12116.05088,E,1,06,1.50,120.5,M,16.6,M,,*5F
$GPGSA,A,3,17,19,28,06,14,09,,,,,,,4.03,1.50,3.75*0E
$GPGSV,4,1,14,02,26,285,,03,,,25,04,,,20,06,48,318,41*77
$GPGSV,4,2,14,09,28,114,20,11,,,10,12,06,322,,14,38,180,37*4B
$GPGSV,4,3,14,17,63,058,39,18,,,11,19,59,004,40,27,,,18*7E
$GPGSV,4,4,14,28,54,197,43,50,51,133,30*7C
$GPGLL,2458.19215,N,12116.05088,E,081219.00,A,A*6F
$GPRMC,081220.00,A,2458.19213,N,12116.05164,E,2.422,85.44,160521,,,A*5D
$GPVTG,85.44,T,,M,2.422,N,4.485,K,A*0B
$GPGGA,081220.00,2458.19213,N,12116.05164,E,1,06,1.50,120.3,M,16.6,M,,*56
$GPGSA,A,3,17,19,28,06,14,09,,,,,,,4.03,1.50,3.75*0E
$GPGSV,3,1,11,02,26,285,,03,,,24,06,48,318,43,09,28,114,21*44
$GPGSV,3,2,11,11,,,11,12,06,322,,14,38,180,23,17,63,058,40*42
$GPGSV,3,3,11,19,59,004,41,28,54,197,43,50,51,133,35*49
$GPGLL,2458.19213,N,12116.05164,E,081220.00,A,A*60
$GPRMC,081221.00,A,2458.19217,N,12116.05232,E,2.264,85.32,160521,,,A*5D
$GPVTG,85.32,T,,M,2.264,N,4.193,K,A*0C
$GPGGA,081221.00,2458.19217,N,12116.05232,E,1,06,1.50,120.4,M,16.6,M,,*54
$GPGSA,A,3,17,19,28,06,14,09,,,,,,,4.03,1.50,3.75*0E
$GPGSV,3,1,10,02,26,285,,03,,,21,06,48,318,43,09,28,114,22*43
$GPGSV,3,2,10,12,06,322,,14,38,180,32,17,63,058,40,19,59,004,41*76
$GPGSV,3,3,10,28,54,197,42,50,51,133,35*7C
$GPGLL,2458.19217,N,12116.05232,E,081221.00,A,A*65
$GPRMC,081222.00,A,2458.19234,N,12116.05289,E,2.234,80.72,160521,,,A*5B
$GPVTG,80.72,T,,M,2.234,N,4.138,K,A*09
$GPGGA,081222.00,2458.19234,N,12116.05289,E,1,06,1.50,121.0,M,16.6,M,,*53
$GPGSA,A,3,17,19,28,06,14,09,,,,,,,4.03,1.50,3.75*0E
$GPGSV,3,1,11,02,26,285,,03,,,20,06,48,318,43,09,28,114,21*40
$GPGSV,3,2,11,12,06,322,,14,38,180,26,17,63,058,40,18,,,25*49
$GPGSV,3,3,11,19,59,004,41,28,54,197,44,50,51,133,38*43
$GPGLL,2458.19234,N,12116.05289,E,081222.00,A,A*67
$GPRMC,081223.00,A,2458.19144,N,12116.05301,E,4.143,128.85,160521,,,A*61
$GPVTG,128.85,T,,M,4.143,N,7.674,K,A*3B
$GPGGA,081223.00,2458.19144,N,12116.05301,E,1,06,1.50,121.7,M,16.6,M,,*50
$GPGSA,A,3,17,19,28,06,14,09,,,,,,,4.03,1.50,3.75*0E
$GPGSV,3,1,10,02,26,285,,03,,,15,06,48,319,41,09,28,114,20*45
$GPGSV,3,2,10,12,06,322,,14,38,180,25,17,63,058,37,19,59,004,39*7F
$GPGSV,3,3,10,28,54,197,36,50,51,133,34*7E
$GPGLL,2458.19144,N,12116.05301,E,081223.00,A,A*63
$GPRMC,081224.00,A,2458.19091,N,12116.05333,E,2.618,,160521,,,A*79
$GPVTG,,T,,M,2.618,N,4.849,K,A*2F
$GPGGA,081224.00,2458.19091,N,12116.05333,E,1,06,2.28,122.7,M,16.6,M,,*50
$GPGSA,A,3,17,19,28,06,14,09,,,,,,,7.32,2.28,6.95*08
$GPGSV,3,1,10,02,26,285,,03,,,11,06,48,319,42,09,28,114,22*40
$GPGSV,3,2,10,12,06,322,,14,38,180,25,17,63,058,40,19,59,004,40*71
$GPGSV,3,3,10,28,54,197,35,50,51,133,34*7D
$GPGLL,2458.19091,N,12116.05333,E,081224.00,A,A*6C
$GPRMC,081225.00,A,2458.19069,N,12116.05360,E,1.826,,160521,,,A*79
$GPVTG,,T,,M,1.826,N,3.381,K,A*27
$GPGGA,081225.00,2458.19069,N,12116.05360,E,1,06,2.28,124.7,M,16.6,M,,*56
$GPGSA,A,3,17,19,28,06,14,09,,,,,,,7.32,2.28,6.95*08
$GPGSV,3,1,10,02,26,285,,03,,,09,06,48,319,42,09,28,114,23*48
$GPGSV,3,2,10,12,06,322,,14,38,180,35,17,63,058,40,19,59,004,40*70
$GPGSV,3,3,10,28,54,197,38,50,51,133,30*74
$GPGLL,2458.19069,N,12116.05360,E,081225.00,A,A*6C
$GPRMC,081226.00,A,2458.19086,N,12116.05391,E,1.665,,160521,,,A*7C
$GPVTG,,T,,M,1.665,N,3.084,K,A*28
$GPGGA,081226.00,2458.19086,N,12116.05391,E,1,06,2.28,127.1,M,16.6,M,,*5F
$GPGSA,A,3,17,19,28,06,14,09,,,,,,,7.32,2.28,6.95*08
$GPGSV,3,1,09,02,26,285,,03,,,09,06,48,319,42,09,29,113,25*40
$GPGSV,3,2,09,12,06,322,,14,38,180,30,17,63,058,40,19,59,004,40*7D
$GPGSV,3,3,09,28,54,197,35*42
$GPGLL,2458.19086,N,12116.05391,E,081226.00,A,A*60
$GPRMC,081227.00,A,2458.19080,N,12116.05385,E,1.527,,160521,,,A*7B
$GPVTG,,T,,M,1.527,N,2.828,K,A*22
$GPGGA,081227.00,2458.19080,N,12116.05385,E,1,07,1.19,129.9,M,16.6,M,,*5B
$GPGSA,A,3,17,19,28,06,14,09,02,,,,,,2.68,1.19,2.40*0D
$GPGSV,3,1,09,02,26,285,30,03,,,09,06,48,319,41,09,29,113,23*46
$GPGSV,3,2,09,12,06,322,,14,38,180,31,17,63,058,37,19,59,004,39*72
$GPGSV,3,3,09,28,54,197,37*40
$GPGLL,2458.19080,N,12116.05385,E,081227.00,A,A*62
$GPRMC,081228.00,A,2458.19089,N,12116.05401,E,1.640,,160521,,,A*74
$GPVTG,,T,,M,1.640,N,3.037,K,A*27
$GPGGA,081228.00,2458.19089,N,12116.05401,E,1,07,1.19,133.5,M,16.6,M,,*51
$GPGSA,A,3,17,19,28,06,14,09,02,,,,,,2.68,1.19,2.40*0D
$GPGSV,3,1,09,02,26,285,30,03,,,09,06,48,319,45,09,29,113,22*43
$GPGSV,3,2,09,12,06,322,,14,38,180,26,17,63,058,39,19,59,004,42*76
$GPGSV,3,3,09,28,54,197,33*44
$GPGLL,2458.19089,N,12116.05401,E,081228.00,A,A*6F
$GPRMC,081229.00,A,2458.19075,N,12116.05420,E,1.720,,160521,,,A*72
$GPVTG,,T,,M,1.720,N,3.186,K,A*2B
$GPGGA,081229.00,2458.19075,N,12116.05420,E,1,07,1.19,135.1,M,16.6,M,,*52
$GPGSA,A,3,17,19,28,06,14,09,02,,,,,,2.68,1.19,2.40*0D
$GPGSV,3,1,10,02,26,285,30,03,,,08,04,,,25,06,48,319,44*79
$GPGSV,3,2,10,09,29,113,21,12,06,322,,14,38,180,24,17,63,058,38*79
$GPGSV,3,3,10,19,59,004,41,28,54,197,27*7C
$GPGLL,2458.19075,N,12116.05420,E,081229.00,A,A*6E
$GPRMC,081230.00,A,2458.19091,N,12116.05459,E,1.309,,160521,,,A*71
$GPVTG,,T,,M,1.309,N,2.425,K,A*29
$GPGGA,081230.00,2458.19091,N,12116.05459,E,1,07,1.19,136.6,M,16.6,M,,*5A
$GPGSA,A,3,17,19,28,06,14,09,02,,,,,,2.68,1.19,2.40*0D
$GPGSV,3,1,10,02,26,285,22,03,,,08,04,,,20,06,48,319,44*7F
$GPGSV,3,2,10,09,29,113,21,12,06,322,,14,38,180,30,17,63,058,39*7D
$GPGSV,3,3,10,19,59,004,40,28,54,197,28*72
$GPGLL,2458.19091,N,12116.05459,E,081230.00,A,A*62
$GPRMC,081231.00,A,2458.19103,N,12116.05514,E,1.365,,160521,,,A*78
$GPVTG,,T,,M,1.365,N,2.529,K,A*2E
$GPGGA,081231.00,2458.19103,N,12116.05514,E,1,07,1.19,135.7,M,16.6,M,,*5B
$GPGSA,A,3,17,19,28,06,14,09,02,,,,,,2.68,1.19,2.40*0D
$GPGSV,3,1,10,02,26,285,21,03,,,08,04,,,17,06,48,319,44*78
$GPGSV,3,2,10,09,29,113,20,12,06,322,22,14,37,180,24,17,63,058,37*78
$GPGSV,3,3,10,19,59,004,38,28,54,197,28*7D
$GPGLL,2458.19103,N,12116.05514,E,081231.00,A,A*61
$GPRMC,081232.00,A,2458.19001,N,12116.05459,E,4.779,187.23,160521,,,A*6D
$GPVTG,187.23,T,,M,4.779,N,8.850,K,A*3A
$GPGGA,081232.00,2458.19001,N,12116.05459,E,1,07,2.19,136.8,M,16.6,M,,*5C
$GPGSA,A,3,17,19,28,06,14,09,02,,,,,,5.41,2.19,4.95*0C
$GPGSV,3,1,10,02,26,285,22,03,,,08,04,,,15,06,48,319,43*7E
$GPGSV,3,2,10,09,29,113,21,12,06,322,,14,37,180,30,17,63,058,37*7C
$GPGSV,3,3,10,19,59,004,38,28,54,197,27*72
$GPGLL,2458.19001,N,12116.05459,E,081232.00,A,A*69
$GPRMC,081233.00,A,2458.19014,N,12116.05487,E,1.325,,160521,,,A*72
$GPVTG,,T,,M,1.325,N,2.455,K,A*20
$GPGGA,081233.00,2458.19014,N,12116.05487,E,1,07,2.19,137.5,M,16.6,M,,*56
$GPGSA,A,3,17,19,28,06,14,09,02,,,,,,5.41,2.19,4.95*0C
$GPGSV,3,1,09,02,26,285,34,03,,,08,06,48,319,43,09,29,113,23*41
$GPGSV,3,2,09,12,06,322,,14,37,180,24,17,63,058,37,19,59,004,39*79
$GPGSV,3,3,09,28,54,197,35*42
$GPGLL,2458.19014,N,12116.05487,E,081233.00,A,A*6F
$GPRMC,081234.00,A,2458.18960,N,12116.05543,E,3.521,188.17,160521,,,A*6E
$GPVTG,188.17,T,,M,3.521,N,6.522,K,A*3C
$GPGGA,081234.00,2458.18960,N,12116.05543,E,1,07,1.19,136.6,M,16.6,M,,*52
$GPGSA,A,3,17,19,28,06,14,09,02,,,,,,2.68,1.19,2.41*0C
$GPGSV,3,1,09,02,26,285,34,04,,,24,06,48,319,44,09,29,113,23*4F
$GPGSV,3,2,09,12,06,322,,14,37,180,25,17,63,060,40,19,59,004,40*7D
$GPGSV,3,3,09,28,54,197,28*4E
$GPGLL,2458.18960,N,12116.05543,E,081234.00,A,A*6A
$GPRMC,081235.00,A,2458.18838,N,12116.05543,E,5.352,188.62,160521,,,A*65
$GPVTG,188.62,T,,M,5.352,N,9.912,K,A*3A
$GPGGA,081235.00,2458.18838,N,12116.05543,E,1,07,1.19,136.5,M,16.6,M,,*5C
$GPGSA,A,3,17,19,28,06,14,09,02,,,,,,2.68,1.19,2.41*0C
$GPGSV,3,1,09,02,26,285,37,04,,,20,06,48,319,45,09,29,113,22*48
$GPGSV,3,2,09,12,06,322,,14,37,180,24,17,63,060,40,19,59,004,40*7C
$GPGSV,3,3,09,28,54,197,27*41
$GPGLL,2458.18838,N,12116.05543,E,081235.00,A,A*67
$GPRMC,081236.00,A,2458.18856,N,12116.05568,E,1.838,,160521,,,A*7F
$GPVTG,,T,,M,1.838,N,3.405,K,A*23
$GPGGA,081236.00,2458.18856,N,12116.05568,E,1,07,2.19,136.3,M,16.6,M,,*5B
$GPGSA,A,3,17,19,28,06,14,09,02,,,,,,5.41,2.19,4.95*0C
$GPGSV,3,1,09,02,26,285,38,04,,,17,06,48,319,45,09,29,113,24*45
$GPGSV,3,2,09,12,06,322,,14,37,180,30,17,63,060,39,19,60,004,40*7D
$GPGSV,3,3,09,28,54,197,28*4E
$GPGLL,2458.18856,N,12116.05568,E,081236.00,A,A*65
$GPRMC,081237.00,A,2458.18794,N,12116.05576,E,2.021,185.60,160521,,,A*67
$GPVTG,185.60,T,,M,2.021,N,3.743,K,A*35
$GPGGA,081237.00,2458.18794,N,12116.05576,E,1,06,1.51,138.0,M,16.6,M,,*57
$GPGSA,A,3,17,19,06,14,09,02,,,,,,,3.36,1.51,3.00*04
$GPGSV,3,1,09,02,26,285,39,05,,,23,06,48,319,46,09,29,113,24*41
$GPGSV,3,2,09,12,06,322,,14,37,180,23,17,63,060,39,19,60,004,40*7F
$GPGSV,3,3,09,28,54,197,29*4F
$GPGLL,2458.18794,N,12116.05576,E,081237.00,A,A*6A
$GPRMC,081238.00,A,2458.18778,N,12116.05588,E,1.439,,160521,,,A*71
$GPVTG,,T,,M,1.439,N,2.665,K,A*2B
$GPGGA,081238.00,2458.18778,N,12116.05588,E,1,07,1.19,140.0,M,16.6,M,,*59
$GPGSA,A,3,17,19,28,06,14,09,02,,,,,,2.68,1.19,2.41*0C
$GPGSV,3,1,10,02,26,285,37,04,,,30,05,,,19,06,48,319,43*7B
$GPGSV,3,2,10,09,29,113,23,12,06,322,,14,37,180,29,17,63,060,37*7D
$GPGSV,3,3,10,19,60,004,38,28,54,197,23*7C
$GPGLL,2458.18778,N,12116.05588,E,081238.00,A,A*66
$GPRMC,081239.00,A,2458.18856,N,12116.05652,E,0.799,,160521,,,A*7F
$GPVTG,,T,,M,0.799,N,1.481,K,A*28
$GPGGA,081239.00,2458.18856,N,12116.05652,E,1,07,1.19,139.2,M,16.6,M,,*53
$GPGSA,A,3,17,19,28,06,14,09,02,,,,,,2.68,1.19,2.41*0C
$GPGSV,3,1,09,02,26,285,37,04,,,29,06,48,319,42,09,29,113,29*4D
$GPGSV,3,2,09,12,06,322,20,14,37,180,27,17,63,060,38,19,60,004,38*77
$GPGSV,3,3,09,28,54,197,31*46
$GPGLL,2458.18856,N,12116.05652,E,081239.00,A,A*60
$GPRMC,081240.00,A,2458.18942,N,12116.05714,E,1.592,80.63,160521,,,A*5D
$GPVTG,80.63,T,,M,1.592,N,2.948,K,A*08
$GPGGA,081240.00,2458.18942,N,12116.05714,E,1,07,1.19,138.3,M,16.6,M,,*5A
$GPGSA,A,3,17,19,28,06,14,09,02,,,,,,2.68,1.19,2.41*0C
$GPGSV,3,1,10,02,26,285,39,04,,,28,05,,,28,06,48,319,42*7F
$GPGSV,3,2,10,09,29,113,22,12,06,322,,14,37,180,27,17,63,060,40*72
$GPGSV,3,3,10,19,60,004,38,28,54,197,29*76
$GPGLL,2458.18942,N,12116.05714,E,081240.00,A,A*69
$GPRMC,081241.00,A,2458.19012,N,12116.05784,E,1.507,59.95,160521,,,A*59
$GPVTG,59.95,T,,M,1.507,N,2.790,K,A*02
$GPGGA,081241.00,2458.19012,N,12116.05784,E,1,07,1.19,136.0,M,16.6,M,,*52
$GPGSA,A,3,17,19,28,06,14,09,02,,,,,,2.69,1.19,2.41*0D
$GPGSV,3,1,10,02,26,285,41,04,,,26,05,,,28,06,48,319,40*7C
$GPGSV,3,2,10,09,29,113,21,12,06,322,,14,37,180,25,17,63,060,38*7C
$GPGSV,3,3,10,19,60,004,37,28,54,197,22*72
$GPGLL,2458.19012,N,12116.05784,E,081241.00,A,A*6C
$GPRMC,081242.00,A,2458.19056,N,12116.05825,E,1.442,49.65,160521,,,A*50
$GPVTG,49.65,T,,M,1.442,N,2.671,K,A*02
$GPGGA,081242.00,2458.19056,N,12116.05825,E,1,07,1.19,135.7,M,16.6,M,,*51
$GPGSA,A,3,17,19,28,06,14,09,02,,,,,,2.69,1.19,2.41*0D
$GPGSV,2,1,08,02,26,285,39,06,48,319,38,09,29,113,28,12,06,322,*76
$GPGSV,2,2,08,14,37,180,24,17,63,060,37,19,60,004,37,28,54,197,23*75
$GPGLL,2458.19056,N,12116.05825,E,081242.00,A,A*6B
$GPRMC,081243.00,A,2458.19068,N,12116.05839,E,1.080,,160521,,,A*7B
$GPVTG,,T,,M,1.080,N,2.000,K,A*28
$GPGGA,081243.00,2458.19068,N,12116.05839,E,1,07,1.19,136.8,M,16.6,M,,*5C
$GPGSA,A,3,17,19,28,06,14,09,02,,,,,,2.69,1.19,2.41*0D
$GPGSV,3,1,10,02,26,285,41,06,48,319,38,08,,,30,09,29,113,28*4C
$GPGSV,3,2,10,12,06,322,,14,37,180,21,17,63,060,37,19,60,004,38*74
$GPGSV,3,3,10,20,,,27,28,54,197,22*4B
$GPGLL,2458.19068,N,12116.05839,E,081243.00,A,A*6A
$GPRMC,081244.00,A,2458.19120,N,12116.05871,E,1.319,42.18,160521,,,A*5F
$GPVTG,42.18,T,,M,1.319,N,2.442,K,A*08
$GPGGA,081244.00,2458.19120,N,12116.05871,E,1,07,1.19,136.8,M,16.6,M,,*5A
$GPGSA,A,3,17,19,28,06,14,09,02,,,,,,2.69,1.19,2.41*0D
$GPGSV,3,1,10,02,26,285,43,06,48,319,38,08,,,28,09,29,113,21*4E
$GPGSV,3,2,10,12,06,322,,14,37,180,22,17,63,060,38,19,60,004,37*77
$GPGSV,3,3,10,20,,,26,28,54,197,24*4C
$GPGLL,2458.19120,N,12116.05871,E,081244.00,A,A*6C
$GPRMC,081245.00,A,2458.19213,N,12116.05925,E,1.656,29.46,160521,,,A*55
$GPVTG,29.46,T,,M,1.656,N,3.068,K,A*0D
$GPGGA,081245.00,2458.19213,N,12116.05925,E,1,07,1.19,135.5,M,16.6,M,,*56
$GPGSA,A,3,17,19,28,06,14,09,02,,,,,,2.69,1.19,2.41*0D
$GPGSV,3,1,11,02,26,285,41,06,48,319,41,08,,,26,09,29,113,29*45
$GPGSV,3,2,11,12,06,322,,14,37,180,22,17,63,060,38,19,60,004,39*78
$GPGSV,3,3,11,20,,,25,23,,,25,28,53,197,29*42
$GPGLL,2458.19213,N,12116.05925,E,081245.00,A,A*6E
$GPRMC,081246.00,A,2458.19213,N,12116.05957,E,0.485,,160521,,,A*79
$GPVTG,,T,,M,0.485,N,0.899,K,A*22
$GPGGA,081246.00,2458.19213,N,12116.05957,E,1,07,1.19,132.7,M,16.6,M,,*55
$GPGSA,A,3,17,19,28,06,14,09,02,,,,,,2.69,1.19,2.41*0D
$GPGSV,3,1,11,02,26,285,39,06,48,319,45,08,,,24,09,29,113,30*44
$GPGSV,3,2,11,12,06,322,,14,37,180,24,17,63,060,39,19,60,004,40*71
$GPGSV,3,3,11,20,,,24,23,,,23,28,53,197,29*45
$GPGLL,2458.19213,N,12116.05957,E,081246.00,A,A*68
$GPRMC,081247.00,A,2458.19244,N,12116.06003,E,0.425,,160521,,,A*7B
$GPVTG,,T,,M,0.425,N,0.787,K,A*28
$GPGGA,081247.00,2458.19244,N,12116.06003,E,1,07,1.78,130.9,M,16.6,M,,*56
$GPGSA,A,3,17,19,28,06,14,09,02,,,,,,4.79,1.78,4.44*0E
$GPGSV,3,1,11,02,26,285,40,06,48,319,42,08,,,21,09,29,113,30*48
$GPGSV,3,2,11,12,06,322,19,14,37,180,24,17,63,060,37,19,60,004,38*78
$GPGSV,3,3,11,20,,,21,23,,,19,28,53,197,29*49
$GPGLL,2458.19244,N,12116.06003,E,081247.00,A,A*60
$GPRMC,081248.00,A,2458.19223,N,12116.05988,E,0.852,,160521,,,A*70
$GPVTG,,T,,M,0.852,N,1.577,K,A*28
$GPGGA,081248.00,2458.19223,N,12116.05988,E,1,06,1.78,131.4,M,16.6,M,,*5C
$GPGSA,A,3,17,19,06,14,09,02,,,,,,,4.79,1.78,4.44*04
$GPGSV,3,1,11,02,26,285,41,06,48,319,42,08,,,18,09,29,113,30*43
$GPGSV,3,2,11,12,06,322,,14,37,180,22,17,63,060,39,19,60,004,39*79
$GPGSV,3,3,11,20,,,18,23,,,13,28,53,197,*42
$GPGLL,2458.19223,N,12116.05988,E,081248.00,A,A*67
$GPRMC,081249.00,A,2458.19358,N,12116.06016,E,1.192,,160521,,,A*75
$GPVTG,,T,,M,1.192,N,2.207,K,A*2F
$GPGGA,081249.00,2458.19358,N,12116.06016,E,1,06,1.81,128.5,M,16.6,M,,*52
$GPGSA,A,2,17,19,06,14,09,02,,,,,,,2.06,1.81,1.00*08
$GPGSV,3,1,11,02,26,285,26,06,48,319,40,08,,,11,09,29,113,22*4A
$GPGSV,3,2,11,12,06,322,,14,37,180,30,17,63,060,36,19,60,004,37*7B
$GPGSV,3,3,11,20,,,14,23,,,09,28,53,197,*45
$GPGLL,2458.19358,N,12116.06016,E,081249.00,A,A*66
$GPRMC,081250.00,V,,,,,,,160521,,,N*72
$GPVTG,,,,,,,,,N*30
$GPGGA,081250.00,,,,,0,00,99.99,,,,,,*68
$GPGSA,A,1,,,,,,,,,,,,,99.99,99.99,99.99*30
$GPGSV,3,1,10,02,26,285,25,06,48,319,41,08,,,09,09,29,113,22*40
$GPGSV,3,2,10,12,06,322,,14,37,180,30,17,63,060,40,19,60,004,40*7B
$GPGSV,3,3,10,23,,,08,28,53,197,40*46
$GPGLL,,,,,081250.00,V,N*44
$GPRMC,081251.00,A,2458.18990,N,12116.05925,E,6.550,175.64,160521,,,A*6B
$GPVTG,175.64,T,,M,6.550,N,12.131,K,A*0A
$GPGGA,081251.00,2458.18990,N,12116.05925,E,1,07,1.19,128.2,M,16.6,M,,*59
$GPGSA,A,3,17,19,28,06,14,09,02,,,,,,2.69,1.19,2.41*0D
$GPGSV,2,1,08,02,26,285,31,06,48,319,42,09,29,113,20,12,06,322,*7B
$GPGSV,2,2,08,14,37,180,22,17,63,060,40,19,60,004,42,28,53,197,42*71
$GPGLL,2458.18990,N,12116.05925,E,081251.00,A,A*6A
$GPRMC,081252.00,A,2458.18939,N,12116.05983,E,6.103,177.17,160521,,,A*63
$GPVTG,177.17,T,,M,6.103,N,11.303,K,A*0E
$GPGGA,081252.00,2458.18939,N,12116.05983,E,1,07,2.62,126.9,M,16.6,M,,*5F
$GPGSA,A,3,17,19,28,06,14,09,02,,,,,,6.08,2.62,5.49*0E
$GPGSV,3,1,09,02,26,285,25,06,48,319,44,09,29,113,17,12,06,322,*7C
$GPGSV,3,2,09,14,37,180,21,17,63,060,40,19,60,004,40,28,53,197,40*72
$GPGSV,3,3,09,50,51,133,40*44
$GPGLL,2458.18939,N,12116.05983,E,081252.00,A,A*66
$GPRMC,081253.00,A,2458.18830,N,12116.06138,E,6.149,169.55,160521,,,A*66
$GPVTG,169.55,T,,M,6.149,N,11.389,K,A*0B
$GPGGA,081253.00,2458.18830,N,12116.06138,E,1,06,2.49,126.6,M,16.6,M,,*5A
$GPGSA,A,2,17,19,28,06,09,02,,,,,,,2.68,2.49,1.00*08
$GPGSV,3,1,09,02,26,285,35,06,48,319,44,09,29,113,14,12,06,322,*7E
$GPGSV,3,2,09,14,37,180,,17,63,060,39,19,60,004,41,28,53,197,37*7E
$GPGSV,3,3,09,50,51,133,41*45
$GPGLL,2458.18830,N,12116.06138,E,081253.00,A,A*64
$GPRMC,081254.00,A,2458.18849,N,12116.06355,E,5.885,156.80,160521,,,A*68
$GPVTG,156.80,T,,M,5.885,N,10.899,K,A*0E
$GPGGA,081254.00,2458.18849,N,12116.06355,E,1,06,2.49,126.0,M,16.6,M,,*5C
$GPGSA,A,2,17,19,28,06,09,02,,,,,,,2.68,2.49,1.00*08
$GPGSV,3,1,09,02,26,285,40,06,48,319,45,09,29,113,11,12,06,322,*78
$GPGSV,3,2,09,14,37,180,,17,63,060,40,19,60,004,40,28,53,197,38*7E
$GPGSV,3,3,09,50,51,133,41*45
$GPGLL,2458.18849,N,12116.06355,E,081254.00,A,A*64
$GPRMC,081255.00,A,2458.19179,N,12116.06388,E,2.282,100.73,160521,,,A*67
$GPVTG,100.73,T,,M,2.282,N,4.227,K,A*31
$GPGGA,081255.00,2458.19179,N,12116.06388,E,1,05,2.89,125.5,M,16.6,M,,*5F
$GPGSA,A,3,17,19,28,06,02,,,,,,,,7.52,2.89,6.94*0A
$GPGSV,3,1,09,02,26,285,38,06,48,319,47,09,29,113,08,12,06,322,*7D
$GPGSV,3,2,09,14,37,180,,17,63,060,41,19,60,004,43,28,53,197,42*71
$GPGSV,3,3,09,50,51,133,42*46
$GPGLL,2458.19179,N,12116.06388,E,081255.00,A,A*6E
$GPRMC,081256.00,A,2458.19262,N,12116.06470,E,2.267,89.79,160521,,,A*5C
$GPVTG,89.79,T,,M,2.267,N,4.198,K,A*07
$GPGGA,081256.00,2458.19262,N,12116.06470,E,1,07,2.89,125.3,M,16.6,M,,*51
$GPGSA,A,3,17,19,28,06,14,09,02,,,,,,7.52,2.89,6.94*06
$GPGSV,3,1,10,02,26,285,37,06,48,319,45,09,29,113,19,12,06,322,*78
$GPGSV,3,2,10,14,37,180,23,17,63,060,41,19,60,004,41,27,,,23*4B
$GPGSV,3,3,10,28,53,197,42,50,51,133,41*78
$GPGLL,2458.19262,N,12116.06470,E,081256.00,A,A*64
$GPRMC,081257.00,A,2458.19408,N,12116.06434,E,2.702,50.07,160521,,,A*5C
$GPVTG,50.07,T,,M,2.702,N,5.004,K,A*09
$GPGGA,081257.00,2458.19408,N,12116.06434,E,1,07,2.19,125.2,M,16.6,M,,*52
$GPGSA,A,3,17,19,28,06,14,09,02,,,,,,5.42,2.19,4.96*0C
$GPGSV,3,1,10,02,26,285,33,06,48,319,43,09,29,113,16,12,06,322,*75
$GPGSV,3,2,10,14,37,180,30,17,63,060,40,19,60,004,38,27,,,20*45
$GPGSV,3,3,10,28,53,197,36,50,51,133,39*74
$GPGLL,2458.19408,N,12116.06434,E,081257.00,A,A*6F
$GPRMC,081258.00,A,2458.19535,N,12116.06491,E,2.362,,160521,,,A*7D
$GPVTG,,T,,M,2.362,N,4.375,K,A*23
$GPGGA,081258.00,2458.19535,N,12116.06491,E,1,07,2.19,125.1,M,16.6,M,,*5E
$GPGSA,A,3,17,19,28,06,14,09,02,,,,,,5.42,2.19,4.96*0C
$GPGSV,3,1,10,02,26,285,37,06,48,319,44,09,29,113,13,12,06,322,*73
$GPGSV,3,2,10,14,37,180,34,17,63,060,36,19,60,004,40,27,,,17*4B
$GPGSV,3,3,10,28,53,197,41,50,51,133,39*74
$GPGLL,2458.19535,N,12116.06491,E,081258.00,A,A*60
$GPRMC,081259.00,A,2458.19677,N,12116.06579,E,2.322,36.81,160521,,,A*58
$GPVTG,36.81,T,,M,2.322,N,4.300,K,A*07
$GPGGA,081259.00,2458.19677,N,12116.06579,E,1,07,2.19,125.3,M,16.6,M,,*5F
$GPGSA,A,3,17,19,28,06,14,09,02,,,,,,5.42,2.19,4.96*0C
$GPGSV,3,1,10,02,26,285,37,06,48,319,45,09,29,113,13,12,06,322,*72
$GPGSV,3,2,10,14,37,180,36,17,63,060,34,19,60,004,39,27,,,14*46
$GPGSV,3,3,10,28,53,197,34,50,51,133,39*76
$GPGLL,2458.19677,N,12116.06579,E,081259.00,A,A*63
$GPRMC,081300.00,A,2458.19830,N,12116.06671,E,2.004,43.46,160521,,,A*5D
$GPVTG,43.46,T,,M,2.004,N,3.712,K,A*09
$GPGGA,081300.00,2458.19830,N,12116.06671,E,1,06,2.19,125.3,M,16.6,M,,*55
$GPGSA,A,3,17,19,28,06,14,02,,,,,,,5.42,2.19,4.96*05
$GPGSV,3,1,10,02,26,285,38,06,48,319,44,09,29,113,,12,06,322,*7E
$GPGSV,3,2,10,14,37,180,39,17,63,060,32,19,60,004,40,27,,,13*46
$GPGSV,3,3,10,28,53,197,37,50,51,133,41*7A
$GPGLL,2458.19830,N,12116.06671,E,081300.00,A,A*68
$GPRMC,081301.00,A,2458.19965,N,12116.06749,E,2.271,45.87,160521,,,A*5C
$GPVTG,45.87,T,,M,2.271,N,4.205,K,A*06
$GPGGA,081301.00,2458.19965,N,12116.06749,E,1,07,2.19,125.4,M,16.6,M,,*59
$GPGSA,A,3,17,19,28,06,14,09,02,,,,,,5.43,2.19,4.96*0D
$GPGSV,3,1,10,02,26,285,36,06,48,319,43,09,29,113,21,12,06,322,*74
$GPGSV,3,2,10,14,37,180,42,17,63,060,26,19,60,004,40,27,,,12*4E
$GPGSV,3,3,10,28,53,197,37,50,51,133,41*7A
$GPGLL,2458.19965,N,12116.06749,E,081301.00,A,A*62
$GPRMC,081302.00,A,2458.20078,N,12116.06810,E,2.191,45.20,160521,,,A*53
$GPVTG,45.20,T,,M,2.191,N,4.057,K,A*03
$GPGGA,081302.00,2458.20078,N,12116.06810,E,1,06,2.87,125.6,M,16.6,M,,*52
$GPGSA,A,3,19,28,06,14,09,02,,,,,,,6.08,2.87,5.36*0B
$GPGSV,3,1,09,02,26,285,38,06,48,319,46,09,29,113,18,12,06,322,*7D
$GPGSV,3,2,09,14,37,180,39,17,63,060,,19,60,004,40,28,53,197,35*7D
$GPGSV,3,3,09,50,51,133,40*44
$GPGLL,2458.20078,N,12116.06810,E,081302.00,A,A*6D
$GPRMC,081303.00,A,2458.20182,N,12116.06879,E,2.435,44.29,160521,,,A*5A
$GPVTG,44.29,T,,M,2.435,N,4.509,K,A*0E
$GPGGA,081303.00,2458.20182,N,12116.06879,E,1,06,2.87,125.7,M,16.6,M,,*59
$GPGSA,A,3,19,28,06,14,09,02,,,,,,,6.08,2.87,5.36*0B
$GPGSV,3,1,09,02,26,285,40,06,48,319,43,09,29,113,15,12,06,322,*7A
$GPGSV,3,2,09,14,37,180,37,17,63,060,,19,60,004,40,28,53,197,30*76
$GPGSV,3,3,09,50,51,133,40*44
$GPGLL,2458.20182,N,12116.06879,E,081303.00,A,A*67
$GPRMC,081304.00,A,2458.20262,N,12116.06934,E,2.209,43.54,160521,,,A*5C
$GPVTG,43.54,T,,M,2.209,N,4.092,K,A*0D
$GPGGA,081304.00,2458.20262,N,12116.06934,E,1,06,2.87,125.8,M,16.6,M,,*54
$GPGSA,A,3,19,28,06,14,09,02,,,,,,,6.08,2.87,5.36*0B
$GPGSV,3,1,09,02,26,285,40,06,48,319,44,09,29,113,13,12,06,322,*7B
$GPGSV,3,2,09,14,37,180,35,17,63,060,,19,60,004,40,28,53,197,29*7C
$GPGSV,3,3,09,50,51,133,38*4B
$GPGLL,2458.20262,N,12116.06934,E,081304.00,A,A*65
$GPRMC,081305.00,A,2458.20357,N,12116.07004,E,2.719,44.41,160521,,,A*56
$GPVTG,44.41,T,,M,2.719,N,5.035,K,A*06
$GPGGA,081305.00,2458.20357,N,12116.07004,E,1,06,1.25,126.1,M,16.6,M,,*58
$GPGSA,A,3,19,28,06,14,09,02,,,,,,,2.89,1.25,2.61*08
$GPGSV,3,1,09,02,26,285,37,06,48,319,48,09,29,113,13,12,06,322,*77
$GPGSV,3,2,09,14,37,180,39,17,63,060,,19,60,004,41,28,53,197,36*7F
$GPGSV,3,3,09,50,51,133,39*4A
$GPGLL,2458.20357,N,12116.07004,E,081305.00,A,A*68
$GPRMC,081306.00,A,2458.20433,N,12116.07049,E,2.349,47.19,160521,,,A*56
$GPVTG,47.19,T,,M,2.349,N,4.351,K,A*09
$GPGGA,081306.00,2458.20433,N,12116.07049,E,1,06,1.25,126.3,M,16.6,M,,*55
$GPGSA,A,3,19,28,06,14,09,02,,,,,,,2.89,1.25,2.61*08
$GPGSV,3,1,09,02,26,285,36,06,48,319,46,09,29,113,15,12,06,322,*7E
$GPGSV,3,2,09,14,37,180,39,17,63,060,,19,60,004,40,28,53,197,43*7C
$GPGSV,3,3,09,50,51,133,40*44
$GPGLL,2458.20433,N,12116.07049,E,081306.00,A,A*67
$GPRMC,081307.00,A,2458.20495,N,12116.07081,E,2.043,51.33,160521,,,A*59
$GPVTG,51.33,T,,M,2.043,N,3.783,K,A*03
$GPGGA,081307.00,2458.20495,N,12116.07081,E,1,06,1.25,126.7,M,16.6,M,,*58
$GPGSA,A,3,19,28,06,14,09,02,,,,,,,2.89,1.25,2.61*08
$GPGSV,3,1,09,02,26,285,33,06,48,319,44,09,29,113,19,12,06,322,*75
$GPGSV,3,2,09,14,37,180,37,17,63,060,,19,60,004,41,28,53,197,40*70
$GPGSV,3,3,09,50,51,133,38*4B
$GPGLL,2458.20495,N,12116.07081,E,081307.00,A,A*6E
$GPRMC,081308.00,A,2458.20563,N,12116.07145,E,2.174,51.41,160521,,,A*57
$GPVTG,51.41,T,,M,2.174,N,4.027,K,A*0D
$GPGGA,081308.00,2458.20563,N,12116.07145,E,1,06,2.87,126.8,M,16.6,M,,*52
$GPGSA,A,3,19,28,06,14,09,02,,,,,,,6.08,2.87,5.36*0B
$GPGSV,3,1,10,02,26,285,38,06,48,319,43,09,29,113,29,11,,,20*46
$GPGSV,3,2,10,12,06,322,,14,37,180,40,17,63,060,,19,60,004,41*79
$GPGSV,3,3,10,28,53,197,41,50,51,133,41*7B
$GPGLL,2458.20563,N,12116.07145,E,081308.00,A,A*60
$GPRMC,081309.00,A,2458.20615,N,12116.07171,E,1.840,48.49,160521,,,A*5E
$GPVTG,48.49,T,,M,1.840,N,3.407,K,A*01
$GPGGA,081309.00,2458.20615,N,12116.07171,E,1,06,1.25,127.0,M,16.6,M,,*54
$GPGSA,A,3,19,28,06,14,09,02,,,,,,,2.90,1.25,2.61*00
$GPGSV,3,1,11,02,26,285,41,03,,,20,06,48,319,38,09,29,113,19*45
$GPGSV,3,2,11,11,,,19,12,06,322,,14,37,180,34,17,63,060,*4C
$GPGSV,3,3,11,19,60,004,42,28,53,197,25,50,51,133,40*45
$GPGLL,2458.20615,N,12116.07171,E,081309.00,A,A*64
$GPRMC,081310.00,A,2458.20671,N,12116.07204,E,2.037,45.44,160521,,,A*5E
$GPVTG,45.44,T,,M,2.037,N,3.773,K,A*0A
$GPGGA,081310.00,2458.20671,N,12116.07204,E,1,07,1.25,127.3,M,16.6,M,,*5D
$GPGSA,A,3,17,19,28,06,14,09,02,,,,,,2.90,1.25,2.61*06
$GPGSV,3,1,09,02,26,285,44,06,48,319,36,09,29,113,20,12,06,322,*7A
$GPGSV,3,2,09,14,37,180,30,17,63,060,15,19,60,004,36,28,53,197,30*74
$GPGSV,3,3,09,50,51,133,28*4A
$GPGLL,2458.20671,N,12116.07204,E,081310.00,A,A*6F
$GPRMC,081311.00,A,2458.20717,N,12116.07244,E,1.728,,160521,,,A*7F
$GPVTG,,T,,M,1.728,N,3.200,K,A*2E
$GPGGA,081311.00,2458.20717,N,12116.07244,E,1,07,2.87,127.3,M,16.6,M,,*52
$GPGSA,A,3,17,19,28,06,14,09,02,,,,,,6.08,2.87,5.36*0D
$GPGSV,3,1,10,02,26,285,43,06,48,319,29,09,29,113,21,12,06,322,*7A
$GPGSV,3,2,10,14,37,180,30,17,63,060,11,19,60,004,40,21,,,14*4F
$GPGSV,3,3,10,28,53,197,29,50,51,133,28*7A
$GPGLL,2458.20717,N,12116.07244,E,081311.00,A,A*6B
$GPRMC,081312.00,A,2458.20771,N,12116.07231,E,1.402,,160521,,,A*75
$GPVTG,,T,,M,1.402,N,2.597,K,A*2D
$GPGGA,081312.00,2458.20771,N,12116.07231,E,1,06,1.25,127.5,M,16.6,M,,*5F
$GPGSA,A,3,19,28,06,14,09,02,,,,,,,2.90,1.25,2.61*00
$GPGSV,3,1,10,02,26,285,37,06,48,319,30,09,29,113,21,12,06,322,*71
$GPGSV,3,2,10,14,37,180,34,17,63,060,09,19,60,004,40,21,,,09*4E
$GPGSV,3,3,10,28,53,197,38,50,51,133,29*7B
$GPGLL,2458.20771,N,12116.07231,E,081312.00,A,A*6A
$GPRMC,081313.00,A,2458.20811,N,12116.07222,E,1.052,,160521,,,A*7E
$GPVTG,,T,,M,1.052,N,1.949,K,A*20
$GPGGA,081313.00,2458.20811,N,12116.07222,E,1,06,1.25,127.8,M,16.6,M,,*58
$GPGSA,A,3,19,28,06,14,09,02,,,,,,,2.90,1.25,2.61*00
$GPGSV,3,1,12,02,26,285,36,06,48,319,29,09,29,113,22,12,06,322,*79
$GPGSV,3,2,12,13,,,33,14,37,180,47,17,63,060,,18,,,31*7C
$GPGSV,3,3,12,19,60,004,43,28,53,197,46,47,22,105,30,50,51,133,39*78
$GPGLL,2458.20811,N,12116.07222,E,081313.00,A,A*60
$GPRMC,081314.00,A,2458.20855,N,12116.07170,E,1.264,,160521,,,A*7A
$GPVTG,,T,,M,1.264,N,2.340,K,A*27
$GPGGA,081314.00,2458.20855,N,12116.07170,E,1,06,1.25,128.3,M,16.6,M,,*5F
$GPGSA,A,3,19,28,06,14,09,02,,,,,,,2.90,1.25,2.61*00
$GPGSV,3,1,10,02,26,285,33,06,48,319,28,09,29,113,22,12,06,322,*7F
$GPGSV,3,2,10,13,,,23,14,37,180,41,17,63,060,,19,60,004,38*43
$GPGSV,3,3,10,28,53,197,44,50,51,133,39*71
$GPGLL,2458.20855,N,12116.07170,E,081314.00,A,A*63
$GPRMC,081315.00,A,2458.20890,N,12116.07130,E,1.210,0.51,160521,,,A*6F
$GPVTG,0.51,T,,M,1.210,N,2.242,K,A*3D
$GPGGA,081315.00,2458.20890,N,12116.07130,E,1,06,1.25,128.7,M,16.6,M,,*57
$GPGSA,A,3,19,28,06,14,09,02,,,,,,,2.90,1.25,2.61*00
$GPGSV,3,1,09,02,26,285,36,06,48,319,27,09,29,113,20,12,06,322,20*7D
$GPGSV,3,2,09,14,37,180,43,17,63,060,,19,60,004,40,28,53,197,42*70
$GPGSV,3,3,09,50,51,133,37*44
$GPGLL,2458.20890,N,12116.07130,E,081315.00,A,A*6F
$GPRMC,081316.00,A,2458.20928,N,12116.07069,E,1.693,319.99,160521,,,A*63
$GPVTG,319.99,T,,M,1.693,N,3.135,K,A*3F
$GPGGA,081316.00,2458.20928,N,12116.07069,E,1,07,1.25,129.2,M,16.6,M,,*5E
$GPGSA,A,3,19,28,06,14,09,02,17,,,,,,2.90,1.25,2.62*05
$GPGSV,3,1,10,02,26,285,34,04,,,25,06,48,319,27,09,29,113,19*4A
$GPGSV,3,2,10,12,06,322,,14,37,180,42,17,63,060,20,19,60,004,39*76
$GPGSV,3,3,10,28,53,197,44,50,51,133,38*70
$GPGLL,2458.20928,N,12116.07069,E,081316.00,A,A*63
$GPRMC,081317.00,A,2458.20963,N,12116.07025,E,1.649,313.36,160521,,,A*6D
$GPVTG,313.36,T,,M,1.649,N,3.054,K,A*31
$GPGGA,081317.00,2458.20963,N,12116.07025,E,1,07,1.25,129.4,M,16.6,M,,*5E
$GPGSA,A,3,19,28,06,14,09,02,17,,,,,,2.90,1.25,2.62*05
$GPGSV,3,1,09,02,26,285,30,06,48,319,25,09,29,113,17,12,06,322,*7F
$GPGSV,3,2,09,14,37,180,40,17,63,060,20,19,60,004,38,28,53,197,44*78
$GPGSV,3,3,09,50,51,133,37*44
$GPGLL,2458.20963,N,12116.07025,E,081317.00,A,A*65
$GPRMC,081318.00,A,2458.21006,N,12116.06977,E,1.668,310.39,160521,,,A*69
$GPVTG,310.39,T,,M,1.668,N,3.090,K,A*36
$GPGGA,081318.00,2458.21006,N,12116.06977,E,1,07,1.25,129.8,M,16.6,M,,*59
$GPGSA,A,3,19,28,06,14,09,02,17,,,,,,2.90,1.25,2.62*05
$GPGSV,3,1,11,02,26,285,30,04,,,20,06,48,319,23,09,29,113,16*41
$GPGSV,3,2,11,12,06,322,,13,,,22,14,37,180,41,17,63,060,21*47
$GPGSV,3,3,11,19,60,004,38,28,53,197,44,50,51,133,39*41
$GPGLL,2458.21006,N,12116.06977,E,081318.00,A,A*6E
$GPRMC,081319.00,A,2458.21043,N,12116.06974,E,1.008,,160521,,,A*7C
$GPVTG,,T,,M,1.008,N,1.867,K,A*22
$GPGGA,081319.00,2458.21043,N,12116.06974,E,1,07,1.19,130.3,M,16.6,M,,*56
$GPGSA,A,3,19,28,06,14,09,02,17,,,,,,2.70,1.19,2.42*06
$GPGSV,3,1,12,02,26,285,34,04,,,22,06,48,319,23,09,29,113,19*4B
$GPGSV,3,2,12,12,06,322,,13,,,23,14,37,180,38,17,63,060,24*4E
$GPGSV,3,3,12,18,,,24,19,60,004,39,28,53,197,44,50,51,133,38*4D
$GPGLL,2458.21043,N,12116.06974,E,081319.00,A,A*6D
$GPRMC,081320.00,A,2458.21077,N,12116.06958,E,0.937,,160521,,,A*7B
$GPVTG,,T,,M,0.937,N,1.735,K,A*2E
$GPGGA,081320.00,2458.21077,N,12116.06958,E,1,07,1.19,130.9,M,16.6,M,,*5F
$GPGSA,A,3,19,28,06,14,09,02,17,,,,,,2.70,1.19,2.42*06
$GPGSV,3,1,12,02,26,285,30,04,,,22,06,48,319,24,09,29,113,20*42
$GPGSV,3,2,12,12,06,322,20,13,,,22,14,37,180,38,17,63,060,31*49
$GPGSV,3,3,12,18,,,23,19,60,004,39,28,53,197,44,50,51,133,37*45
$GPGLL,2458.21077,N,12116.06958,E,081320.00,A,A*6E
$GPRMC,081321.00,A,2458.21107,N,12116.06984,E,0.689,,160521,,,A*77
$GPVTG,,T,,M,0.689,N,1.276,K,A*26
$GPGGA,081321.00,2458.21107,N,12116.06984,E,1,07,1.19,131.6,M,16.6,M,,*57
$GPGSA,A,3,19,28,06,14,09,02,17,,,,,,2.70,1.19,2.42*06
$GPGSV,3,1,11,02,26,285,29,04,,,20,06,48,319,23,09,29,113,21*4D
$GPGSV,3,2,11,12,06,322,,14,37,180,40,17,63,060,35,19,60,004,37*7F
$GPGSV,3,3,11,26,,,24,28,53,197,44,50,51,133,37*7C
$GPGLL,2458.21107,N,12116.06984,E,081321.00,A,A*68
$GPRMC,081322.00,A,2458.21138,N,12116.06981,E,0.741,,160521,,,A*78
$GPVTG,,T,,M,0.741,N,1.372,K,A*26
$GPGGA,081322.00,2458.21138,N,12116.06981,E,1,07,1.19,132.2,M,16.6,M,,*5A
$GPGSA,A,3,19,28,06,14,09,02,17,,,,,,2.70,1.19,2.42*06
$GPGSV,3,1,09,02,26,285,29,06,48,319,22,09,29,113,21,12,06,322,*75
$GPGSV,3,2,09,14,37,180,41,17,63,060,41,19,60,004,40,28,53,197,45*70
$GPGSV,3,3,09,50,51,133,38*4B
$GPGLL,2458.21138,N,12116.06981,E,081322.00,A,A*62
$GPRMC,081323.00,A,2458.21173,N,12116.06919,E,1.446,304.38,160521,,,A*60
$GPVTG,304.38,T,,M,1.446,N,2.678,K,A*3D
$GPGGA,081323.00,2458.21173,N,12116.06919,E,1,06,1.25,132.8,M,16.6,M,,*51
$GPGSA,A,3,19,28,14,09,02,17,,,,,,,2.73,1.25,2.43*0D
$GPGSV,3,1,10,02,26,285,28,06,48,319,,09,29,113,22,12,06,322,*7F
$GPGSV,3,2,10,14,37,180,42,17,63,060,44,19,60,004,38,26,,,24*41
$GPGSV,3,3,10,28,53,197,43,50,51,133,37*78
$GPGLL,2458.21173,N,12116.06919,E,081323.00,A,A*6D
$GPRMC,081324.00,A,2458.21207,N,12116.06876,E,1.832,297.62,160521,,,A*64
$GPVTG,297.62,T,,M,1.832,N,3.392,K,A*36
$GPGGA,081324.00,2458.21207,N,12116.06876,E,1,06,1.25,133.2,M,16.6,M,,*55
$GPGSA,A,3,19,28,14,09,02,17,,,,,,,2.73,1.25,2.43*0D
$GPGSV,3,1,12,02,26,285,29,06,48,319,,09,29,113,21,12,06,322,*7F
$GPGSV,3,2,12,13,,,23,14,37,180,42,17,63,060,45,18,,,26*7F
$GPGSV,3,3,12,19,60,004,38,26,,,26,28,53,197,45,50,51,133,37*4D
$GPGLL,2458.21207,N,12116.06876,E,081324.00,A,A*62
$GPRMC,081325.00,A,2458.21235,N,12116.06839,E,1.579,297.90,160521,,,A*60
$GPVTG,297.90,T,,M,1.579,N,2.924,K,A*3F
$GPGGA,081325.00,2458.21235,N,12116.06839,E,1,06,1.25,133.8,M,16.6,M,,*54
$GPGSA,A,3,19,28,14,09,02,17,,,,,,,2.73,1.25,2.43*0D
$GPGSV,3,1,11,02,26,285,29,06,48,319,21,09,29,113,19,12,06,322,*74
$GPGSV,3,2,11,14,37,180,40,17,63,060,44,18,,,21,19,60,004,38*4A
$GPGSV,3,3,11,26,,,21,28,53,197,44,50,51,133,37*79
$GPGLL,2458.21235,N,12116.06839,E,081325.00,A,A*69
$GPRMC,081326.00,A,2458.21271,N,12116.06807,E,1.487,300.36,160521,,,A*6D
$GPVTG,300.36,T,,M,1.487,N,2.755,K,A*34
$GPGGA,081326.00,2458.21271,N,12116.06807,E,1,06,1.25,134.1,M,16.6,M,,*54
$GPGSA,A,3,19,28,14,09,02,17,,,,,,,2.73,1.25,2.43*0D
$GPGSV,3,1,10,02,26,285,21,06,48,319,,09,29,113,19,12,06,322,*7E
$GPGSV,3,2,10,14,37,180,39,17,63,060,45,19,60,004,38,26,,,18*43
$GPGSV,3,3,10,28,53,197,44,50,51,133,37*7F
$GPGLL,2458.21271,N,12116.06807,E,081326.00,A,A*67
$GPRMC,081327.00,A,2458.21310,N,12116.06769,E,1.633,305.66,160521,,,A*60
$GPVTG,305.66,T,,M,1.633,N,3.024,K,A*39
$GPGGA,081327.00,2458.21310,N,12116.06769,E,1,06,1.25,134.6,M,16.6,M,,*53
$GPGSA,A,3,19,28,14,09,02,17,,,,,,,2.73,1.25,2.43*0D
$GPGSV,3,1,10,02,26,285,22,06,48,319,,09,29,113,20,12,06,322,*77
$GPGSV,3,2,10,14,37,180,38,17,63,060,44,19,60,004,38,26,,,15*4E
$GPGSV,3,3,10,28,53,197,44,50,51,133,37*7F
$GPGLL,2458.21310,N,12116.06769,E,081327.00,A,A*67
$GPRMC,081328.00,A,2458.21347,N,12116.06719,E,1.807,303.62,160521,,,A*61
$GPVTG,303.62,T,,M,1.807,N,3.347,K,A*34
$GPGGA,081328.00,2458.21347,N,12116.06719,E,1,06,1.25,135.0,M,16.6,M,,*5E
$GPGSA,A,3,19,28,14,09,02,17,,,,,,,2.73,1.25,2.43*0D
$GPGSV,3,1,10,02,26,285,23,06,48,319,,09,29,113,20,12,06,322,*76
$GPGSV,3,2,10,13,,,20,14,37,180,38,17,63,060,45,19,60,004,38*4F
$GPGSV,3,3,10,28,53,197,43,50,51,133,37*78
$GPGLL,2458.21347,N,12116.06719,E,081328.00,A,A*6D
$GPRMC,081329.00,A,2458.21386,N,12116.06660,E,2.024,303.50,160521,,,A*69
$GPVTG,303.50,T,,M,2.024,N,3.748,K,A*34
$GPGGA,081329.00,2458.21386,N,12116.06660,E,1,06,1.25,135.6,M,16.6,M,,*5B
$GPGSA,A,3,19,28,14,09,02,17,,,,,,,2.73,1.25,2.43*0D
$GPGSV,3,1,12,02,26,285,26,03,,,21,05,,,23,06,48,319,*70
$GPGSV,3,2,12,09,29,113,20,12,06,322,,13,,,18,14,37,180,36*48
$GPGSV,3,3,12,17,63,060,43,19,60,004,37,28,53,197,41,50,51,133,37*74
$GPGLL,2458.21386,N,12116.06660,E,081329.00,A,A*6E
$GPRMC,081330.00,A,2458.21418,N,12116.06617,E,1.767,302.54,160521,,,A*67
$GPVTG,302.54,T,,M,1.767,N,3.273,K,A*3F
$GPGGA,081330.00,2458.21418,N,12116.06617,E,1,06,1.25,136.1,M,16.6,M,,*57
$GPGSA,A,3,19,28,14,09,02,17,,,,,,,2.73,1.25,2.43*0D
$GPGSV,3,1,11,02,26,286,27,03,,,17,05,,,19,06,48,319,*7D
$GPGSV,3,2,11,09,29,113,16,12,06,322,,14,37,180,38,17,63,060,43*79
$GPGSV,3,3,11,19,60,004,36,28,53,197,43,50,51,133,34*45
$GPGLL,2458.21418,N,12116.06617,E,081330.00,A,A*66
$GPRMC,081331.00,A,2458.21460,N,12116.06552,E,2.234,301.66,160521,,,A*69
$GPVTG,301.66,T,,M,2.234,N,4.137,K,A*39
$GPGGA,081331.00,2458.21460,N,12116.06552,E,1,06,1.25,136.5,M,16.6,M,,*5F
$GPGSA,A,3,19,28,14,09,02,17,,,,,,,2.73,1.25,2.43*0D
$GPGSV,3,1,10,02,26,286,32,05,,,16,06,48,319,,09,29,113,16*44
$GPGSV,3,2,10,12,06,322,,14,37,180,40,17,63,060,45,19,60,004,37*79
$GPGSV,3,3,10,28,53,197,44,50,51,133,38*70
$GPGLL,2458.21460,N,12116.06552,E,081331.00,A,A*6A
$GPRMC,081332.00,A,2458.21501,N,12116.06494,E,2.051,302.46,160521,,,A*67
$GPVTG,302.46,T,,M,2.051,N,3.798,K,A*3D
$GPGGA,081332.00,2458.21501,N,12116.06494,E,1,06,1.25,136.8,M,16.6,M,,*5C
$GPGSA,A,3,19,28,14,09,02,17,,,,,,,2.73,1.25,2.43*0D
$GPGSV,3,1,10,02,26,286,28,03,,,22,06,48,319,,09,29,113,19*41
$GPGSV,3,2,10,12,06,322,,14,37,180,36,17,63,060,45,19,60,004,37*78
$GPGSV,3,3,10,28,53,197,43,50,51,133,36*79
$GPGLL,2458.21501,N,12116.06494,E,081332.00,A,A*64
$GPRMC,081333.00,A,2458.21538,N,12116.06434,E,1.959,302.60,160521,,,A*60
$GPVTG,302.60,T,,M,1.959,N,3.628,K,A*31
$GPGGA,081333.00,2458.21538,N,12116.06434,E,1,06,1.25,137.2,M,16.6,M,,*56
$GPGSA,A,3,19,28,14,09,02,17,,,,,,,2.73,1.25,2.43*0D
$GPGSV,3,1,10,02,26,286,28,03,,,21,06,48,319,,09,29,113,20*48
$GPGSV,3,2,10,12,06,322,,14,37,180,39,17,63,060,44,19,60,004,35*74
$GPGSV,3,3,10,28,53,197,44,50,51,133,38*70
$GPGLL,2458.21538,N,12116.06434,E,081333.00,A,A*65
$GPRMC,081334.00,A,2458.21579,N,12116.06373,E,2.002,304.90,160521,,,A*6B
$GPVTG,304.90,T,,M,2.002,N,3.707,K,A*30
$GPGGA,081334.00,2458.21579,N,12116.06373,E,1,06,1.25,137.6,M,16.6,M,,*54
$GPGSA,A,3,19,28,14,09,02,17,,,,,,,2.73,1.25,2.43*0D
$GPGSV,3,1,12,02,26,286,29,03,,,19,05,,,25,06,48,319,*71
$GPGSV,3,2,12,09,29,113,20,12,06,322,,13,,,28,14,37,180,39*44
$GPGSV,3,3,12,17,63,060,45,19,60,004,39,28,53,197,45,50,51,133,38*77
$GPGLL,2458.21579,N,12116.06373,E,081334.00,A,A*63
$GPRMC,081335.00,A,2458.21614,N,12116.06322,E,1.741,305.75,160521,,,A*6F
$GPVTG,305.75,T,,M,1.741,N,3.225,K,A*3C
$GPGGA,081335.00,2458.21614,N,12116.06322,E,1,06,1.25,138.2,M,16.6,M,,*52
$GPGSA,A,3,19,28,14,09,02,17,,,,,,,2.73,1.25,2.43*0D
$GPGSV,3,1,11,02,26,286,27,05,,,23,06,48,319,20,09,29,113,19*4A
$GPGSV,3,2,11,12,06,322,22,13,,,25,14,37,180,35,17,63,060,43*47
$GPGSV,3,3,11,19,60,004,38,28,53,197,43,50,51,133,37*48
$GPGLL,2458.21614,N,12116.06322,E,081335.00,A,A*6E
$GPRMC,081336.00,A,2458.21650,N,12116.06268,E,1.799,308.94,160521,,,A*64
$GPVTG,308.94,T,,M,1.799,N,3.332,K,A*3C
$GPGGA,081336.00,2458.21650,N,12116.06268,E,1,06,1.25,138.8,M,16.6,M,,*54
$GPGSA,A,3,19,28,14,09,02,17,,,,,,,2.73,1.25,2.43*0D
$GPGSV,3,1,10,02,26,286,26,06,48,319,,09,29,113,19,12,06,322,19*72
$GPGSV,3,2,10,13,,,21,14,37,180,34,17,63,060,43,19,60,004,40*4B
$GPGSV,3,3,10,28,53,197,43,50,51,133,34*7B
$GPGLL,2458.21650,N,12116.06268,E,081336.00,A,A*62
$GPRMC,081337.00,A,2458.21687,N,12116.06207,E,1.908,304.45,160521,,,A*60
$GPVTG,304.45,T,,M,1.908,N,3.534,K,A*3A
$GPGGA,081337.00,2458.21687,N,12116.06207,E,1,06,1.25,139.3,M,16.6,M,,*5C
$GPGSA,A,3,19,28,14,09,02,17,,,,,,,2.74,1.25,2.43*0A
$GPGSV,3,1,10,02,26,286,27,06,48,319,,09,29,113,20,12,06,322,13*73
$GPGSV,3,2,10,13,,,18,14,37,180,36,17,63,060,43,19,60,004,40*43
$GPGSV,3,3,10,28,53,197,44,50,51,133,33*7B
$GPGLL,2458.21687,N,12116.06207,E,081337.00,A,A*60
$GPRMC,081338.00,A,2458.21722,N,12116.06144,E,2.006,302.60,160521,,,A*60
$GPVTG,302.60,T,,M,2.006,N,3.714,K,A*3F
$GPGGA,081338.00,2458.21722,N,12116.06144,E,1,06,1.25,139.8,M,16.6,M,,*52
$GPGSA,A,3,19,28,14,09,02,17,,,,,,,2.74,1.25,2.43*0A
$GPGSV,3,1,11,02,26,286,25,05,,,20,06,48,319,,09,29,113,16*46
$GPGSV,3,2,11,12,06,322,,13,,,12,14,37,180,34,17,63,060,43*42
$GPGSV,3,3,11,19,60,004,39,28,53,197,43,50,51,133,33*4D
$GPGLL,2458.21722,N,12116.06144,E,081338.00,A,A*65
$GPRMC,081339.00,A,2458.21756,N,12116.06081,E,2.079,301.78,160521,,,A*68
$GPVTG,301.78,T,,M,2.079,N,3.851,K,A*33
$GPGGA,081339.00,2458.21756,N,12116.06081,E,1,06,1.25,140.1,M,16.6,M,,*5F
$GPGSA,A,3,19,28,14,09,02,17,,,,,,,2.74,1.25,2.43*0A
$GPGSV,3,1,11,02,26,286,23,05,,,29,06,48,319,,09,29,113,15*4A
$GPGSV,3,2,11,12,06,322,,13,,,09,14,37,180,30,17,63,060,42*4D
$GPGSV,3,3,11,19,60,004,39,28,53,197,41,50,51,133,33*4F
$GPGLL,2458.21756,N,12116.06081,E,081339.00,A,A*6F
$GPRMC,081340.00,A,2458.21792,N,12116.06014,E,2.223,301.30,160521,,,A*63
$GPVTG,301.30,T,,M,2.223,N,4.118,K,A*31
$GPGGA,081340.00,2458.21792,N,12116.06014,E,1,06,1.25,140.6,M,16.6,M,,*52
$GPGSA,A,3,19,28,14,09,02,17,,,,,,,2.74,1.25,2.44*0D
$GPGSV,3,1,11,02,26,286,22,05,,,17,06,48,319,,09,29,113,14*47
$GPGSV,3,2,11,12,07,322,,13,,,08,14,37,180,33,17,63,060,42*4E
$GPGSV,3,3,11,19,60,004,40,28,53,197,41,50,51,133,33*41
$GPGLL,2458.21792,N,12116.06014,E,081340.00,A,A*65
$GPRMC,081341.00,A,2458.21831,N,12116.05947,E,2.313,301.64,160521,,,A*6B
$GPVTG,301.64,T,,M,2.313,N,4.283,K,A*33
$GPGGA,081341.00,2458.21831,N,12116.05947,E,1,06,1.25,140.8,M,16.6,M,,*57
$GPGSA,A,3,19,28,14,09,02,17,,,,,,,2.74,1.25,2.44*0D
$GPGSV,3,1,11,02,26,286,22,05,,,23,06,48,319,,09,29,113,14*40
$GPGSV,3,2,11,12,07,322,,13,,,10,14,37,180,29,17,63,060,44*4A
$GPGSV,3,3,11,19,60,004,41,28,53,197,42,50,51,133,37*47
$GPGLL,2458.21831,N,12116.05947,E,081341.00,A,A*6E
$GPRMC,081342.00,A,2458.21864,N,12116.05886,E,2.046,301.66,160521,,,A*65
$GPVTG,301.66,T,,M,2.046,N,3.790,K,A*32
$GPGGA,081342.00,2458.21864,N,12116.05886,E,1,07,1.25,141.2,M,16.6,M,,*52
$GPGSA,A,3,19,28,06,14,09,02,17,,,,,,2.74,1.25,2.44*0B
$GPGSV,4,1,16,02,26,286,21,04,,,25,05,,,18,06,48,319,21*7F
$GPGSV,4,2,16,09,29,113,16,11,,,24,12,07,322,,13,,,10*7C
$GPGSV,4,3,16,14,37,180,29,17,63,060,43,18,,,24,19,60,004,39*47
$GPGSV,4,4,16,20,,,25,21,,,25,28,53,197,42,50,60,166,34*7F
$GPGLL,2458.21864,N,12116.05886,E,081342.00,A,A*61
$GPRMC,081343.00,A,2458.21898,N,12116.05818,E,2.074,299.32,160521,,,A*60
$GPVTG,299.32,T,,M,2.074,N,3.841,K,A*31
$GPGGA,081343.00,2458.21898,N,12116.05818,E,1,06,1.25,141.6,M,16.6,M,,*52
$GPGSA,A,3,19,28,14,09,02,17,,,,,,,2.74,1.25,2.44*0D
$GPGSV,4,1,15,02,26,286,20,05,,,14,06,48,319,,09,29,113,19*48
$GPGSV,4,2,15,12,07,322,,13,,,10,14,37,180,36,17,63,060,44*47
$GPGSV,4,3,15,18,,,22,19,60,004,37,20,,,21,21,,,24*49
$GPGSV,4,4,15,25,,,20,28,53,197,44,50,60,166,37*7D
$GPGLL,2458.21898,N,12116.05818,E,081343.00,A,A*64
$GPRMC,081344.00,A,2458.21935,N,12116.05750,E,2.035,299.52,160521,,,A*61
$GPVTG,299.52,T,,M,2.035,N,3.768,K,A*36
$GPGGA,081344.00,2458.21935,N,12116.05750,E,1,06,1.25,142.0,M,16.6,M,,*55
$GPGSA,A,3,19,28,14,09,02,17,,,,,,,2.74,1.25,2.44*0D
$GPGSV,4,1,14,02,26,286,20,05,,,13,06,48,319,,09,29,113,20*44
$GPGSV,4,2,14,11,,,26,12,07,322,,13,,,10,14,37,180,36*77
$GPGSV,4,3,14,17,63,060,44,19,60,004,38,20,,,16,21,,,23*78
$GPGSV,4,4,14,28,53,197,44,50,60,166,37*79
$GPGLL,2458.21935,N,12116.05750,E,081344.00,A,A*66
$GPRMC,081345.00,A,2458.21971,N,12116.05695,E,1.893,303.16,160521,,,A*6D
$GPVTG,303.16,T,,M,1.893,N,3.505,K,A*3A
$GPGGA,081345.00,2458.21971,N,12116.05695,E,1,05,2.90,142.2,M,16.6,M,,*50
$GPGSA,A,3,19,28,14,09,17,,,,,,,,6.97,2.90,6.34*08
$GPGSV,4,1,14,02,26,286,,06,48,319,20,09,29,113,22,11,,,24*47
$GPGSV,4,2,14,12,07,322,,13,,,10,14,37,180,36,17,63,061,45*46
$GPGSV,4,3,14,18,,,13,19,60,004,36,21,,,22,25,,,26*4F
$GPGSV,4,4,14,28,53,197,44,50,60,166,37*79
$GPGLL,2458.21971,N,12116.05695,E,081345.00,A,A*6F
$GPRMC,081346.00,A,2458.22013,N,12116.05620,E,2.126,303.43,160521,,,A*6A
$GPVTG,303.43,T,,M,2.126,N,3.937,K,A*33
$GPGGA,081346.00,2458.22013,N,12116.05620,E,1,05,2.90,142.9,M,16.6,M,,*58
$GPGSA,A,3,19,28,14,09,17,,,,,,,,6.97,2.90,6.34*08
$GPGSV,4,1,14,02,26,286,,05,,,27,06,48,319,,09,29,113,22*43
$GPGSV,4,2,14,12,07,322,24,13,,,10,14,37,180,37,17,63,061,44*40
$GPGSV,4,3,14,19,60,004,36,21,,,24,22,,,28,23,,,26*4E
$GPGSV,4,4,14,28,53,197,43,50,60,166,35*7C
$GPGLL,2458.22013,N,12116.05620,E,081346.00,A,A*6C
$GPRMC,081347.00,A,2458.22040,N,12116.05554,E,1.976,299.81,160521,,,A*6F
